Address,Location,Latitude,Longitude
49 E 95TH ST,"(41.7217117, -87.62223329999999)",41.7217117, -87.62223329999999
4651 W MADISON ST,"(41.880139, -87.7421358)",41.880139, -87.7421358
5410 S STATE ST,"(41.795957, -87.626323)",41.795957, -87.626323
11250 S ADA ST,"(41.6884623, -87.6558601)",41.6884623, -87.6558601
7535 S DOBSON AVE,"(41.7575678, -87.5992536)",41.7575678, -87.5992536
1919 N SEMINARY AVE,"(41.9164818, -87.6550877)",41.9164818, -87.6550877
10810 S AVE H,"(41.6985287, -87.53319479999999)",41.6985287, -87.53319479999999
1301 W 14TH ST,"(41.8629807, -87.6596682)",41.8629807, -87.6596682
3300 N CAMPBELL AVE,"(41.9421323, -87.6914608)",41.9421323, -87.6914608
8959 S BEVERLY AVE,"(41.730453, -87.6679606)",41.730453, -87.6679606
2851 N SEMINARY AVE,"(41.93397239999999, -87.6558124)",41.93397239999999, -87.6558124
2257 E 71ST ST,"(41.7660249, -87.5692242)",41.7660249, -87.5692242
2133 N MCVICKER AVE,"(41.918921, -87.776404)",41.918921, -87.776404
3630 S WELLS ST,"(41.8278882, -87.6329602)",41.8278882, -87.6329602
5510 W FULLERTON AVE,"(41.9242896, -87.76403359999999)",41.9242896, -87.76403359999999
5235 S CORNELL AVE,"(41.8002895, -87.5849758)",41.8002895, -87.5849758
3545 W FULTON AVE,"(41.8859035, -87.7154043)",41.8859035, -87.7154043
5039 N KIMBALL AVE,"(41.9733858, -87.71350439999999)",41.9733858, -87.71350439999999
4929 N SAWYER AVE,"(41.9711021, -87.7094221)",41.9711021, -87.7094221
2625 N ORCHARD ST,"(41.9296481, -87.6459706)",41.9296481, -87.6459706
630 E 131ST ST,"(41.6574136, -87.6074687)",41.6574136, -87.6074687
2941 N WASHTENAW AVE,"(41.9351308, -87.6952606)",41.9351308, -87.6952606
2234 W 115TH ST,"(41.6841712, -87.677566)",41.6841712, -87.677566
1251 N PARKSIDE AVE,"(41.9036405, -87.76667119999999)",41.9036405, -87.76667119999999
515 S WASHTENAW AVE,"(41.8747358, -87.693715)",41.8747358, -87.693715
1340 W 71ST ST,"(41.7649924, -87.65798830000001)",41.7649924, -87.65798830000001
1920 N HAMLIN AVE,"(41.9161874, -87.72246299999999)",41.9161874, -87.72246299999999
6200 W BLOOMINGDALE AVE,"(41.9133813, -87.78027480000002)",41.9133813, -87.78027480000002
5110 N DAMEN AVE,"(41.9750909, -87.6803091)",41.9750909, -87.6803091
4770 S DORCHESTER AVE,"(41.8083167, -87.5922259)",41.8083167, -87.5922259
1148 N HONORE ST,"(41.9024109, -87.67430440000001)",41.9024109, -87.67430440000001
3748 S PRAIRIE AVE,"(41.8268008, -87.6204427)",41.8268008, -87.6204427
6315 S CLAREMONT AVE,"(41.77816680000001, -87.6822552)",41.77816680000001, -87.6822552
5233 N ASHLAND AVE,"(41.9770899, -87.669264)",41.9770899, -87.669264
2032 N CLYBOURN,"(41.918509, -87.6602796)",41.918509, -87.6602796
3750 E 112TH ST,"(41.6922803, -87.5319701)",41.6922803, -87.5319701
3121 N PULASKI RD,"(41.9379315, -87.72677089999999)",41.9379315, -87.72677089999999
3121 N PULASKI RD,"(41.9379315, -87.72677089999999)",41.9379315, -87.72677089999999
900 W WILSON AVE,"(41.9660193, -87.6521886)",41.9660193, -87.6521886
11144 S ST LAWRENCE AVE,"(41.6916659, -87.6083809)",41.6916659, -87.6083809
4901 S KILBOURN AVE,"(41.80400969999999, -87.7357124)",41.80400969999999, -87.7357124
1119 E 46TH ST,"(41.8109791, -87.59842119999999)",41.8109791, -87.59842119999999
950 W 33RD PL,"(41.8340484, -87.6500959)",41.8340484, -87.6500959
3309 S SHIELDS AVE,"(41.83417439999999, -87.6350089)",41.83417439999999, -87.6350089
911 W 32ND PL,"(41.8356259, -87.6490097)",41.8356259, -87.6490097
4433 S ST LAWRENCE,"(41.814061, -87.6109949)",41.814061, -87.6109949
2111 W ESTES AVE,"(42.0111743, -87.68441969999999)",42.0111743, -87.68441969999999
5345 W CONGRESS PKWY,"(41.8735966, -87.7592027)",41.8735966, -87.7592027
1250 W LEXINGTON ST,"(41.8722099, -87.6588229)",41.8722099, -87.6588229
8300 S ST LOUIS AVE,"(41.7418901, -87.7099618)",41.7418901, -87.7099618
3345 W 83RD ST,"(41.7421401, -87.7067141)",41.7421401, -87.7067141
8505 S INGLESIDE AVE,"(41.7400343, -87.6009832)",41.7400343, -87.6009832
4807 W GUNNISON ST,"(41.9688535, -87.74817329999999)",41.9688535, -87.74817329999999
4237 S WABASH AVE,"(41.8172197, -87.6246682)",41.8172197, -87.6246682
4639 N KENMORE AVE,"(41.9664747, -87.6558529)",41.9664747, -87.6558529
3546 W ADDISON ST,"(41.9467205, -87.7169804)",41.9467205, -87.7169804
406 W WINNECONNA PKWY,"(41.753072, -87.63495499999999)",41.753072, -87.63495499999999
3500 N HOYNE AVE,"(41.9453833, -87.6811506)",41.9453833, -87.6811506
4431 W AUGUSTA BLVD,"(41.8988393, -87.7367908)",41.8988393, -87.7367908
5951 W LAKE ST,"(41.8879961, -87.7739753)",41.8879961, -87.7739753
5352 W CHICAGO AVE,"(41.8951818, -87.76033509999999)",41.8951818, -87.76033509999999
6020 W FOSTER AVE,"(41.9759391, -87.7789081)",41.9759391, -87.7789081
231 N PINE AVE,"(41.88500440000001, -87.76249279999999)",41.88500440000001, -87.76249279999999
5610 W LAKE ST,"(41.888194, -87.76577909999999)",41.888194, -87.76577909999999
1215 E 83RD ST,"(41.7437383, -87.5941856)",41.7437383, -87.5941856
8045 S KENWOOD AVE,"(41.7485226, -87.5912872)",41.7485226, -87.5912872
2945 N SAWYER AVE,"(41.9351698, -87.70871489999999)",41.9351698, -87.70871489999999
3516 W SCHOOL ST,"(41.9412821, -87.71524649999999)",41.9412821, -87.71524649999999
4707 W MARQUETTE RD,"(41.7707098, -87.7395655)",41.7707098, -87.7395655
4920 S THROOP ST,"(41.8044432, -87.6575739)",41.8044432, -87.6575739
3333 W PETERSON AVE,"(41.9900488, -87.71312329999999)",41.9900488, -87.71312329999999
6656 S NORMAL BL,"(41.7731916, -87.63682109999999)",41.7731916, -87.63682109999999
6114 W NORTH AVE,"(41.90948179999999, -87.7785488)",41.90948179999999, -87.7785488
2440 S LEAVITT ST,"(41.8472192, -87.680601)",41.8472192, -87.680601
2827 W ARTHINGTON ST,"(41.870131, -87.6971349)",41.870131, -87.6971349
10441 S LONGWOOD DR,"(41.7031778, -87.6708424)",41.7031778, -87.6708424
10354 S CHARLES ST,"(41.705373, -87.65851459999999)",41.705373, -87.65851459999999
2022 W CERMAK RD,"(41.8521615, -87.67688299999999)",41.8521615, -87.67688299999999
2828 N KILBOURN AVE,"(41.9326996, -87.73987790000001)",41.9326996, -87.73987790000001
7650 S WOLCOTT AVE,"(41.75460959999999, -87.67149739999999)",41.75460959999999, -87.67149739999999
1140 W 66TH ST,"(41.774826, -87.65379779999999)",41.774826, -87.65379779999999
4220 N RICHMOND ST,"(41.9581759, -87.7026015)",41.9581759, -87.7026015
517 W WISCONSIN ST,"(41.9164587, -87.6417884)",41.9164587, -87.6417884
10650 S LONGWOOD DR,"(41.6996246, -87.6712012)",41.6996246, -87.6712012
6445 W STRONG ST,"(41.9699408, -87.790275)",41.9699408, -87.790275
5255 S STATE ST,"(41.7990167, -87.6248351)",41.7990167, -87.6248351
5025 N LARAMIE AVE,"(41.9720396, -87.75681850000001)",41.9720396, -87.75681850000001
6156 S DORCHESTER AVE,"(41.782694, -87.59165899999999)",41.782694, -87.59165899999999
25 W 47TH ST,"(41.8092041, -87.62715899999999)",41.8092041, -87.62715899999999
3151 W WALNUT ST,"(41.8851078, -87.70488879999999)",41.8851078, -87.70488879999999
1725 N SPRINGFIELD AVE,"(41.912869, -87.7239692)",41.912869, -87.7239692
4257 N TRIPP AVE,"(41.958895, -87.733679)",41.958895, -87.733679
3020 N OAK PARK AVE,"(41.9352459, -87.7960202)",41.9352459, -87.7960202
3730 N OAKLEY AVE,"(41.9494917, -87.6865742)",41.9494917, -87.6865742
2456 N MANGO AVE,"(41.924838, -87.77026599999999)",41.924838, -87.77026599999999
10115 S PRAIRIE AVE,"(41.71052479999999, -87.6169857)",41.71052479999999, -87.6169857
3760 N PINE GROVE AVE,"(41.9511593, -87.6475437)",41.9511593, -87.6475437
8930 S MUSKEGON AVE,"(41.7330945, -87.5555985)",41.7330945, -87.5555985
4215 W WEST END AVE,"(41.8829556, -87.73127629999999)",41.8829556, -87.73127629999999
6803 N CAMPBELL AVE,"(42.0052347, -87.69231599999999)",42.0052347, -87.69231599999999
3030 W ARTHINGTON ST,"(41.8703061, -87.7023)",41.8703061, -87.7023
2460 W 102ND ST,"(41.7082007, -87.68315729999999)",41.7082007, -87.68315729999999
9356 S JUSTINE ST,"(41.7232858, -87.661833)",41.7232858, -87.661833
9916 S WALDEN PKWY,"(41.713303, -87.6679798)",41.713303, -87.6679798
1438 W OHIO ST,"(41.892473, -87.66381439999999)",41.892473, -87.66381439999999
427 E 45TH ST,"(41.8127769, -87.61524299999999)",41.8127769, -87.61524299999999
5641 S KENWOOD AVE,"(41.7922491, -87.5932457)",41.7922491, -87.5932457
9101 S EUCLID AVE,"(41.729207, -87.5763834)",41.729207, -87.5763834
2318 N LAVERGNE AVE,"(41.9228767, -87.751605)",41.9228767, -87.751605
1800 W 115TH ST,"(41.6847207, -87.6670141)",41.6847207, -87.6670141
1420 W GRACE ST,"(41.9509477, -87.6650058)",41.9509477, -87.6650058
6751 W 63RD PL,"(41.7763365, -87.789709)",41.7763365, -87.789709
346 W 104TH ST,"(41.7067469, -87.6328467)",41.7067469, -87.6328467
6237 N WHIPPLE ST,"(41.9950262, -87.7053763)",41.9950262, -87.7053763
3939 W 79TH ST,"(41.7487644, -87.7206719)",41.7487644, -87.7206719
3939 W 79TH ST,"(41.7487644, -87.7206719)",41.7487644, -87.7206719
1978 W 111TH ST,"(41.6919429, -87.67093969999999)",41.6919429, -87.67093969999999
3601 W ARTHINGTON ST,"(41.8699144, -87.717038)",41.8699144, -87.717038
7050 S MAY ST,"(41.7657146, -87.6534178)",41.7657146, -87.6534178
1241 W 58TH ST,"(41.7884892, -87.65648929999999)",41.7884892, -87.65648929999999
6710 N WASHTENAW AVE,"(42.0039664, -87.6979523)",42.0039664, -87.6979523
3044 S BONFIELD ST,"(41.83923069999999, -87.65377289999999)",41.83923069999999, -87.65377289999999
6646 S UNIVERSITY AVE,"(41.773573, -87.5984797)",41.773573, -87.5984797
7355 S JEFFERY BL,"(41.7611357, -87.57607039999999)",41.7611357, -87.57607039999999
2710 E 89TH ST,"(41.7344345, -87.55750069999999)",41.7344345, -87.55750069999999
9729 S YATES AVE,"(41.71809710000001, -87.5643236)",41.71809710000001, -87.5643236
7736 S BURNHAM AVE,"(41.7548658, -87.55777669999999)",41.7548658, -87.55777669999999
1246 W 92ND ST,"(41.7270772, -87.654913)",41.7270772, -87.654913
3285 N ELSTON AVE,"(41.941243, -87.699535)",41.941243, -87.699535
4251 N CLARENDON AVE,"(41.9600422, -87.6492392)",41.9600422, -87.6492392
2723 N FAIRFIELD AVE,"(41.931012, -87.69604269999999)",41.931012, -87.69604269999999
8622 W CATALPA AVE,"(41.9794596, -87.8434879)",41.9794596, -87.8434879
3800 N NEW ENGLAND AVE,"(41.949675, -87.7989339)",41.949675, -87.7989339
3700 S LOWE AVE,"(41.8266894, -87.6426221)",41.8266894, -87.6426221
10740 S CALHOUN AVE,"(41.6997402, -87.5623159)",41.6997402, -87.5623159
3501 S RICHMOND ST,"(41.8297016, -87.69833779999999)",41.8297016, -87.69833779999999
3825 S WASHTENAW AVE,"(41.8239989, -87.6918618)",41.8239989, -87.6918618
3000 W. DEVON AVE,"(41.9975768, -87.70471859999999)",41.9975768, -87.70471859999999
5400 N BROADWAY,"(41.9800704, -87.6599888)",41.9800704, -87.6599888
4437 N MAGNOLIA AVE,"(41.9628196, -87.66097769999999)",41.9628196, -87.66097769999999
8 W ROOT ST,"(41.81982929999999, -87.6269947)",41.81982929999999, -87.6269947
4542 S GREENWOOD AVE,"(41.8119775, -87.5993191)",41.8119775, -87.5993191
7046 N HARLEM AVE,"(42.0092711, -87.80667)",42.0092711, -87.80667
250 E 111TH ST,"(41.6941384, -87.6158444)",41.6941384, -87.6158444
10001 S PULASKI RD,"(41.7110849, -87.71997309999999)",41.7110849, -87.71997309999999
644 E 86TH ST,"(41.7383971, -87.6086796)",41.7383971, -87.6086796
12607 S UNION AVE,"(41.6648631, -87.6386967)",41.6648631, -87.6386967
54 N HERMITAGE AVE,"(41.882633, -87.6705831)",41.882633, -87.6705831
6741 S MICHIGAN AVE,"(41.7715893, -87.62140649999999)",41.7715893, -87.62140649999999
5600 W IOWA ST,"(41.897163, -87.76606400000001)",41.897163, -87.76606400000001
5640 N PULASKI RD,"(41.9840401, -87.72845509999999)",41.9840401, -87.72845509999999
9207 S PHILLIPS AVE,"(41.7270568, -87.5645093)",41.7270568, -87.5645093
4347 S CALUMET AVE,"(41.815197, -87.617955)",41.815197, -87.617955
2701 W FOSTER AVE,"(41.9753187, -87.6968823)",41.9753187, -87.6968823
1049 W BUENA,"(41.9586072, -87.65656129999999)",41.9586072, -87.65656129999999
4500 N CALIFORNIA AVE,"(41.9631994, -87.6988393)",41.9631994, -87.6988393
6515 S ASHLAND AVE,"(41.7751925, -87.6637097)",41.7751925, -87.6637097
2035 N MOBILE AVE,"(41.9176413, -87.7818119)",41.9176413, -87.7818119
1903 E 96TH ST,"(41.7206139, -87.5772594)",41.7206139, -87.5772594
5356 S DR MARTIN LUTHER KING,"(41.7968952, -87.6160225)",41.7968952, -87.6160225
1630 W BARRY AVE,"(41.9380894, -87.66983049999999)",41.9380894, -87.66983049999999
9400 S GREENWOOD AVE,"(41.7240178, -87.5972623)",41.7240178, -87.5972623
650 E 91ST PL,"(41.7288177, -87.60766)",41.7288177, -87.60766
1621 W WABANSIA AVE,"(41.91212700000001, -87.6686796)",41.91212700000001, -87.6686796
3542 S WASHTENAW AVE,"(41.8288647, -87.69269919999999)",41.8288647, -87.69269919999999
4913 N SHERIDAN RD,"(41.9723622, -87.65490199999999)",41.9723622, -87.65490199999999
5324 S WOODLAWN AVE,"(41.7986855, -87.59662580000001)",41.7986855, -87.59662580000001
5329 S OAK PARK AVE,"(41.7948196, -87.79101759999999)",41.7948196, -87.79101759999999
6050 N CALIFORNIA AVE,"(41.9918762, -87.69980079999999)",41.9918762, -87.69980079999999
5959 N SHERIDAN RD,"(41.9904941, -87.65483139999999)",41.9904941, -87.65483139999999
3814 W IOWA ST,"(41.8974793, -87.72210830000002)",41.8974793, -87.72210830000002
8546 S CREGIER AVE,"(41.7392845, -87.5815346)",41.7392845, -87.5815346
2833 W ADAMS ST,"(41.8781359, -87.6975332)",41.8781359, -87.6975332
3843 N CALIFORNIA AVE,"(41.9517076, -87.6970874)",41.9517076, -87.6970874
3456 W. 38TH ST,"(41.8245538, -87.71140009999999)",41.8245538, -87.71140009999999
8131 S MAY ST,"(41.7459618, -87.6515055)",41.7459618, -87.6515055
9801 S AVENUE G,"(41.7178298, -87.5306437)",41.7178298, -87.5306437
1234 N MONTICELLO AVE,"(41.9040722, -87.7182183)",41.9040722, -87.7182183
3000 N MANGO AVE,"(41.93535929999999, -87.7703738)",41.93535929999999, -87.7703738
2701 S ASHLAND AVE,"(41.842111, -87.6657575)",41.842111, -87.6657575
4959 S BLACKSTONE AVE,"(41.80465239999999, -87.5900906)",41.80465239999999, -87.5900906
3740 N PANAMA AVE,"(41.94792899999999, -87.829899)",41.94792899999999, -87.829899
8701 SOUTH BENNETT,"(41.7368137, -87.57774789999999)",41.7368137, -87.57774789999999
2345 S MILLARD AVE,"(41.84843499999999, -87.71559719999999)",41.84843499999999, -87.71559719999999
2406 S CENTRAL PARK AVE,"(41.8477075, -87.7152998)",41.8477075, -87.7152998
1651 W DIVERSEY PKWY,"(41.93175859999999, -87.67048679999999)",41.93175859999999, -87.67048679999999
5522 N MILWAUKEE AVE,"(41.9820411, -87.77399489999999)",41.9820411, -87.77399489999999
6441 N CENTRAL AVE,"(41.9985201, -87.7631388)",41.9985201, -87.7631388
1224 W CARMEN AVE,"(41.9745965, -87.6608776)",41.9745965, -87.6608776
1414 E 61ST PL,"(41.7835894, -87.5910163)",41.7835894, -87.5910163
6155 S CARPENTER ST,"(41.78166299999999, -87.650565)",41.78166299999999, -87.650565
1250 W ERIE ST,"(41.8939416, -87.6587921)",41.8939416, -87.6587921
2929 W 83RD ST,"(41.7421281, -87.6968203)",41.7421281, -87.6968203
5516 S MAPLEWOOD AVE,"(41.793112, -87.687934)",41.793112, -87.687934
5740 S MICHIGAN AVE,"(41.79001179999999, -87.6223529)",41.79001179999999, -87.6223529
939 E 132ND ST,"(41.6558488, -87.5986161)",41.6558488, -87.5986161
13100 S CARVER DR,"(42.3327874, -87.8636813)",42.3327874, -87.8636813
901 E 133RD PL,"(41.653157, -87.6009888)",41.653157, -87.6009888
3501 W POTOMAC AVE,"(41.90404179999999, -87.71457550000001)",41.90404179999999, -87.71457550000001
11314 S SPAULDING AVE,"(41.6875193, -87.70396290000001)",41.6875193, -87.70396290000001
2524 S CENTRAL PARK AVE,"(41.8455403, -87.71514309999999)",41.8455403, -87.71514309999999
4330 S KEDVALE AVE,"(41.814104, -87.72782099999999)",41.814104, -87.72782099999999
2908 W WASHINGTON BL,"(41.8832454, -87.6993324)",41.8832454, -87.6993324
226 W SCHILLER,"(41.9078693, -87.6358492)",41.9078693, -87.6358492
5315 N WINTHROP AVE,"(41.9786773, -87.6578954)",41.9786773, -87.6578954
6086 N NORTHWEST HWY,"(41.9920952, -87.7985949)",41.9920952, -87.7985949
721 N CENTRAL PARK AVE,"(41.89431820000001, -87.71627339999999)",41.89431820000001, -87.71627339999999
1100 W IRVING PARK RD,"(41.954629, -87.6572544)",41.954629, -87.6572544
2745 W ROOSEVELT RD,"(41.8661963, -87.6951283)",41.8661963, -87.6951283
4233 S GREENWOOD AVE,"(41.8173018, -87.5993836)",41.8173018, -87.5993836
5145 N LEAVITT ST,"(41.9750319, -87.6842531)",41.9750319, -87.6842531
2021 N POINT ST,"(41.918172, -87.6942832)",41.918172, -87.6942832
4725 N ASHLAND AVE,"(41.9678729, -87.6693414)",41.9678729, -87.6693414
4747 S MARSHFIELD AVE,"(41.8073824, -87.6657907)",41.8073824, -87.6657907
2809 W JARVIS AVE,"(42.01531689999999, -87.700188)",42.01531689999999, -87.700188
7005 S DANTE AVE,"(41.7677341, -87.58902479999999)",41.7677341, -87.58902479999999
2205 W BELMONT AVE,"(41.9393428, -87.6834526)",41.9393428, -87.6834526
3400 N AUSTIN AVE,"(41.9430077, -87.77735589999999)",41.9430077, -87.77735589999999
1010 W CHICAGO,"(41.8965186, -87.6531728)",41.8965186, -87.6531728
3807 W 111TH ST,"(41.6913273, -87.71612239999999)",41.6913273, -87.71612239999999
3737 S PAULINA ST,"(41.8256821, -87.6675037)",41.8256821, -87.6675037
5110 W DIVERSEY,"(41.93177379999999, -87.7546083)",41.93177379999999, -87.7546083
5700 N PULASKI RD,"(41.9845136, -87.7287498)",41.9845136, -87.7287498
541 W HAWTHORNE PL,"(41.9442229, -87.64263179999999)",41.9442229, -87.64263179999999
2189 W BOWLER ST,"(41.8701894, -87.6805182)",41.8701894, -87.6805182
2235 N HAMILTON ST,"(41.92249839999999, -87.68083229999999)",41.92249839999999, -87.68083229999999
1309 W 95TH ST,"(41.7203832, -87.655901)",41.7203832, -87.655901
3900 W PETERSON AVE,"(41.9908915, -87.72756849999999)",41.9908915, -87.72756849999999
11530 S PRAIRIE AVE,"(41.6844598, -87.6167782)",41.6844598, -87.6167782
6105 S MICHIGAN AVE,"(41.7834911, -87.62153200000002)",41.7834911, -87.62153200000002
2245 N MC VICKER AVE,"(41.9217723, -87.7765625)",41.9217723, -87.7765625
212 S FRANCISCO AVE,"(41.8778555, -87.6991705)",41.8778555, -87.6991705
5058 W JACKSON BLVD,"(41.8771777, -87.7516546)",41.8771777, -87.7516546
1850 W ROOSEVELT RD,"(41.8672328, -87.6724245)",41.8672328, -87.6724245
7202 N CLARK ST,"(42.0129142, -87.6746679)",42.0129142, -87.6746679
3519 S GILES AVE,"(41.8301051, -87.6189808)",41.8301051, -87.6189808
7008 S MICHIGAN AVE,"(41.7669482, -87.62223469999999)",41.7669482, -87.62223469999999
1248 W 69TH ST,"(41.7689197, -87.6563164)",41.7689197, -87.6563164
38 S PEORIA ST,"(41.8808261, -87.65001889999999)",41.8808261, -87.65001889999999
2100 E 87TH ST,"(41.7384975, -87.5725195)",41.7384975, -87.5725195
1300 W LOYOLA AVE,"(42.0016472, -87.6637475)",42.0016472, -87.6637475
1240 S PULASKI RD,"(41.8652136, -87.7254663)",41.8652136, -87.7254663
1241 S PULASKI RD,"(41.8648675, -87.72478029999999)",41.8648675, -87.72478029999999
12803 S HALSTED ST,"(41.66120799999999, -87.640973)",41.66120799999999, -87.640973
5480 S KENWOOD AVE,"(41.7957122, -87.59386119999999)",41.7957122, -87.59386119999999
2301 S WENTWORTH AVE,"(41.8507437, -87.6316269)",41.8507437, -87.6316269
6758 N SACRAMENTO AVE,"(42.0046431, -87.7045938)",42.0046431, -87.7045938
3420 N LONG AVE,"(41.9432061, -87.762451)",41.9432061, -87.762451
2450 W RICE ST,"(41.8970977, -87.6885334)",41.8970977, -87.6885334
11429 S DR MARTIN LUTHER KIN,"(41.6863447, -87.61319950000001)",41.6863447, -87.61319950000001
5335 W LE MOYNE ST,"(41.9076355, -87.7596148)",41.9076355, -87.7596148
9240 S HOYNE AVE,"(41.7254553, -87.67451980000001)",41.7254553, -87.67451980000001
3701 S LAKE PARK AVE,"(41.8285967, -87.6059032)",41.8285967, -87.6059032
1533 S CHRISTIANA AVE,"(41.8597919, -87.7091286)",41.8597919, -87.7091286
5042 S ARTESIAN AVE,"(41.8016594, -87.6858604)",41.8016594, -87.6858604
1825 N DAMEN AVE,"(41.9146158, -87.6775729)",41.9146158, -87.6775729
8001 S HONORE ST,"(41.748439, -87.66944339999999)",41.748439, -87.66944339999999
118 N CENTRAL AVE,"(41.8828423, -87.7654124)",41.8828423, -87.7654124
2342 W FLOURNOY ST,"(41.8730337, -87.6854996)",41.8730337, -87.6854996
4501 N CLARENDON AVE,"(41.96367739999999, -87.64931589999999)",41.96367739999999, -87.64931589999999
1045 S MONITOR AVE,"(41.8678731, -87.769894)",41.8678731, -87.769894
4615 W JACKSON BLVD,"(41.8767224, -87.740962)",41.8767224, -87.740962
3400 N ROCKWELL AVE,"(41.9433816, -87.6946043)",41.9433816, -87.6946043
5101 W HARRISON ST,"(41.8724677, -87.7526627)",41.8724677, -87.7526627
13231 S BURLEY AVE,"(41.65469340000001, -87.5440749)",41.65469340000001, -87.5440749
2334 W DIVISION ST,"(41.9033448, -87.685932)",41.9033448, -87.685932
1147 N WESTERN AVE,"(41.9026168, -87.68612949999999)",41.9026168, -87.68612949999999
3121 W BYRON ST,"(41.9516981, -87.7059151)",41.9516981, -87.7059151
6110 N FAIRFIELD AVE,"(41.9931865, -87.6982638)",41.9931865, -87.6982638
2350 W 110TH PL,"(41.6929416, -87.6807159)",41.6929416, -87.6807159
2210 N SOUTHPORT AVE,"(41.921982, -87.66321099999999)",41.921982, -87.66321099999999
1755 N CLYBOURN AVE,"(41.9129985, -87.6524106)",41.9129985, -87.6524106
5554 N MAGNOLIA AVE,"(41.9834901, -87.66135100000001)",41.9834901, -87.66135100000001
30 E 61ST ST,"(41.7837259, -87.62422699999999)",41.7837259, -87.62422699999999
361 E 85TH ST,"(41.7401361, -87.6156496)",41.7401361, -87.6156496
900 E 54TH PL,"(41.7964564, -87.6032658)",41.7964564, -87.6032658
1441 W 119TH ST,"(41.6774712, -87.65955819999999)",41.6774712, -87.65955819999999
8441 S YATES BL,"(41.74161429999999, -87.5655081)",41.74161429999999, -87.5655081
1466 S WABASH AVE,"(41.8622781, -87.62571410000001)",41.8622781, -87.62571410000001
1313 S SACRAMENTO DR,"(41.86436250000001, -87.7010703)",41.86436250000001, -87.7010703
4520 S KEDZIE AVE,"(41.8109217, -87.7044239)",41.8109217, -87.7044239
1003 N LEAVITT ST,"(41.8996893, -87.6814153)",41.8996893, -87.6814153
500 S CENTRAL AVE,"(41.8737893, -87.76496130000001)",41.8737893, -87.76496130000001
1231 S PULASKI RD,"(41.865081, -87.7247639)",41.865081, -87.7247639
7832 S UNION AVE,"(41.7513598, -87.6416157)",41.7513598, -87.6416157
1845 W RICE ST,"(41.896629, -87.6738079)",41.896629, -87.6738079
871 N WABASH AVE,"(41.8985952, -87.6267053)",41.8985952, -87.6267053
8150 S BISHOP ST,"(41.7458533, -87.66016599999999)",41.7458533, -87.66016599999999
4046 N LEAVITT ST,"(41.9554175, -87.6839971)",41.9554175, -87.6839971
1332 W 117TH ST,"(41.6812613, -87.65545940000001)",41.6812613, -87.65545940000001
1624 W 19TH ST,"(41.8561772, -87.66726390000001)",41.8561772, -87.66726390000001
6010 S THROOP ST,"(41.784509, -87.6573787)",41.784509, -87.6573787
2510 S KILDARE AVE,"(41.8454986, -87.7320658)",41.8454986, -87.7320658
821 E 103RD ST,"(41.7065428, -87.6025983)",41.7065428, -87.6025983
5473 S CORNELL AVE,"(41.7958793, -87.5854264)",41.7958793, -87.5854264
1809 W 50TH ST,"(41.802523, -87.67007269999999)",41.802523, -87.67007269999999
1111 N WELLS ST,"(41.9026045, -87.634106)",41.9026045, -87.634106
2100 W 91ST ST,"(41.7283392, -87.6746297)",41.7283392, -87.6746297
44 W 15TH ST,"(41.86191729999999, -87.6291188)",41.86191729999999, -87.6291188
5058 W WEST END AVE,"(41.88343, -87.75254799999999)",41.88343, -87.75254799999999
11030 S LONGWOOD DR,"(41.69349829999999, -87.671672)",41.69349829999999, -87.671672
1726 W BERTEAU AVE,"(41.9579923, -87.6718558)",41.9579923, -87.6718558
2611 N LOCKWOOD AVE,"(41.9281734, -87.7578479)",41.9281734, -87.7578479
2245 W JACKSON BL,"(41.876848, -87.6832325)",41.876848, -87.6832325
1516 S KARLOV AVE,"(41.8600884, -87.72772909999999)",41.8600884, -87.72772909999999
2040 W ADAMS ST,"(41.87909250000001, -87.67842019999999)",41.87909250000001, -87.67842019999999
2230 N DOMINICK ST,"(41.92221019999999, -87.667361)",41.92221019999999, -87.667361
2230 W 108TH PL,"(41.6966693, -87.677689)",41.6966693, -87.677689
1851 W CERMAK ROAD,"(41.851826, -87.67294079999999)",41.851826, -87.67294079999999
2128 S ST LOUIS AVE,"(41.852819, -87.7128551)",41.852819, -87.7128551
8521 S COMMERCIAL AVE,"(41.7403293, -87.551096)",41.7403293, -87.551096
8324 S RACINE AVE,"(41.7420731, -87.6535167)",41.7420731, -87.6535167
10650 S EBERHART AVE,"(41.7002756, -87.6116202)",41.7002756, -87.6116202
4959 S ARCHER AVE,"(41.8022402, -87.721707)",41.8022402, -87.721707
4959 S ARCHER AVE,"(41.8022402, -87.721707)",41.8022402, -87.721707
32 E 115TH ST,"(41.6857487, -87.622046)",41.6857487, -87.622046
5024 S WOLCOTT AVE,"(41.80240149999999, -87.6724481)",41.80240149999999, -87.6724481
3116 W BELDEN AVE,"(41.9235103, -87.7053037)",41.9235103, -87.7053037
3014 W 39TH PL,"(41.8222433, -87.7003271)",41.8222433, -87.7003271
5427 W DIVISION ST,"(41.9019434, -87.7621073)",41.9019434, -87.7621073
4430 S MARSHFIELD AVE,"(41.8132366, -87.6668854)",41.8132366, -87.6668854
6730 S PAULINA ST,"(41.771165, -87.666045)",41.771165, -87.666045
8040 S DAMEN AVE,"(41.7473168, -87.6730596)",41.7473168, -87.6730596
3810 W 81ST PL,"(41.7455946, -87.71863139999999)",41.7455946, -87.71863139999999
800 S WELLS ST,"(41.8714475, -87.634244)",41.8714475, -87.634244
1550 S STATE ST,"(41.8604169, -87.6279242)",41.8604169, -87.6279242
1313 N CLAREMONT AVE,"(41.9057847, -87.6855288)",41.9057847, -87.6855288
16 E 35TH ST,"(41.8310164, -87.62572139999999)",41.8310164, -87.62572139999999
139 S PARKSIDE AVE,"(41.8781592, -87.7656299)",41.8781592, -87.7656299
1356 N DEAN ST,"(41.9070952, -87.67072429999999)",41.9070952, -87.67072429999999
865 S PARK TER,"(41.8704072, -87.6295464)",41.8704072, -87.6295464
1126 E 80TH ST,"(41.7496558, -87.5963147)",41.7496558, -87.5963147
7030 N SACRAMENTO AVE,"(42.0095099, -87.70490769999999)",42.0095099, -87.70490769999999
4905 W WABANSIA AVE,"(41.9114042, -87.7495842)",41.9114042, -87.7495842
6056 N LANDERS AVE,"(41.9909155, -87.75344899999999)",41.9909155, -87.75344899999999
3937 W WILCOX ST,"(41.8787797, -87.7248061)",41.8787797, -87.7248061
6340 N LAKEWOOD AVE,"(41.997559, -87.663337)",41.997559, -87.663337
7240 S WABASH AVE,"(41.762424, -87.624028)",41.762424, -87.624028
2306 W MAYPOLE AVE,"(41.8841724, -87.6849027)",41.8841724, -87.6849027
3436 N OSCEOLA AVE,"(41.9425567, -87.81359049999999)",41.9425567, -87.81359049999999
5415 S UNION AVE,"(41.7959436, -87.6423281)",41.7959436, -87.6423281
4117 N LAVERGNE AVE,"(41.955363, -87.7522539)",41.955363, -87.7522539
8601 W FOSTER AVE,"(41.97317200000001, -87.8416002)",41.97317200000001, -87.8416002
4140 N MARINE DR,"(41.9567418, -87.64699139999999)",41.9567418, -87.64699139999999
8306 S ST LAWRENCE AVE,"(41.743127, -87.611012)",41.743127, -87.611012
8931 S DAUPHIN AVE,"(41.7320212, -87.6020322)",41.7320212, -87.6020322
7521 S DOBSON AVE,"(41.7578079, -87.59908949999999)",41.7578079, -87.59908949999999
2651 W WASHINGTON BL,"(41.8826702, -87.69291419999999)",41.8826702, -87.69291419999999
2734 W POLK ST,"(41.8710725, -87.69486839999999)",41.8710725, -87.69486839999999
3620 S LITUANICA AVE,"(41.8281504, -87.6478954)",41.8281504, -87.6478954
3426 W 77TH ST,"(41.7533701, -87.70813199999999)",41.7533701, -87.70813199999999
535 E 35TH ST,"(41.8306422, -87.6122838)",41.8306422, -87.6122838
521 E 35TH ST,"(41.8308964, -87.61344509999999)",41.8308964, -87.61344509999999
6108 S NATOMA AVE,"(41.7803131, -87.78784519999999)",41.7803131, -87.78784519999999
9336 S KINGSTON AVE,"(41.7249376, -87.5620095)",41.7249376, -87.5620095
1401 S SACRAMENTO,"(41.86323470000001, -87.7020481)",41.86323470000001, -87.7020481
3200 S CALUMET AVE,"(41.8359339, -87.6186606)",41.8359339, -87.6186606
543 N WALLER AVE,"(41.8903861, -87.7671483)",41.8903861, -87.7671483
2722 S DR MARTIN LUTHER KING,"(41.84373799999999, -87.617609)",41.84373799999999, -87.617609
6931 S DAMEN AVE,"(41.7675481, -87.6736083)",41.7675481, -87.6736083
1845 W CORTLAND ST,"(41.9157206, -87.6744861)",41.9157206, -87.6744861
7442 N ASHLAND BLVD,"(42.0172513, -87.6703359)",42.0172513, -87.6703359
330 E 133RD ST,"(41.6540012, -87.61420729999999)",41.6540012, -87.61420729999999
6311 S CALUMET AVE,"(41.7796859, -87.616729)",41.7796859, -87.616729
6650 S ELLIS AVE,"(41.774602, -87.60127299999999)",41.774602, -87.60127299999999
200 E 31ST ST,"(41.8383559, -87.62188739999999)",41.8383559, -87.62188739999999
3000 S DR MARTIN LUTHER KING,"(41.84057139999999, -87.61797609999999)",41.84057139999999, -87.61797609999999
4640 N MELVINA AVE,"(41.965953, -87.782342)",41.965953, -87.782342
10845 S UNION AVE,"(41.6964204, -87.6397648)",41.6964204, -87.6397648
8441 S KOLIN AVE,"(41.7391468, -87.7300731)",41.7391468, -87.7300731
8445 S KOLIN AVE,"(41.73904700000001, -87.7298805)",41.73904700000001, -87.7298805
421 W LOCUST ST,"(41.8989138, -87.63948719999999)",41.8989138, -87.63948719999999
4934 S WABASH AVE,"(41.8046858, -87.6251595)",41.8046858, -87.6251595
1119 W CULLERTON ST,"(41.855021, -87.6539074)",41.855021, -87.6539074
3615 W 16TH ST,"(41.85858289999999, -87.7157865)",41.85858289999999, -87.7157865
555 E 51ST ST,"(41.8013958, -87.61238639999999)",41.8013958, -87.61238639999999
1710 E 93RD ST,"(41.7264906, -87.5828207)",41.7264906, -87.5828207
6121 S HERMITAGE AVE,"(41.7824613, -87.667909)",41.7824613, -87.667909
3400 W 65TH PL,"(41.774628, -87.70833510000001)",41.774628, -87.70833510000001
7350 W PRATT AVE,"(42.0046525, -87.8108201)",42.0046525, -87.8108201
2430 E 82ND ST,"(41.7462811, -87.5650344)",41.7462811, -87.5650344
1330 W CHICAGO AVE,"(41.8966966, -87.66140709999999)",41.8966966, -87.66140709999999
6525 N HIAWATHA AVE,"(41.9994428, -87.76183530000002)",41.9994428, -87.76183530000002
6525 N HIAWATHA AVE,"(41.9994428, -87.76183530000002)",41.9994428, -87.76183530000002
6220 N OLCOTT AVE,"(41.9942041, -87.81378470000001)",41.9942041, -87.81378470000001
6755 N NORTHWEST HWY,"(42.0040475, -87.8175957)",42.0040475, -87.8175957
711 W 60TH PL,"(41.784231, -87.6430642)",41.784231, -87.6430642
12900 S HALSTED ST,"(41.659438, -87.64166999999999)",41.659438, -87.64166999999999
5165 S STATE ST,"(41.8000925, -87.625787)",41.8000925, -87.625787
4815 S KARLOV AVE,"(41.8053759, -87.72553649999999)",41.8053759, -87.72553649999999
224 N CENTRAL AVE,"(41.8849719, -87.7650286)",41.8849719, -87.7650286
600 E 37TH ST,"(41.8275296, -87.61162639999999)",41.8275296, -87.61162639999999
5215 S WOODLAWN AVE,"(41.8004125, -87.59666800000001)",41.8004125, -87.59666800000001
3461 N TROY ST,"(41.9444386, -87.706524)",41.9444386, -87.706524
5600 S EMERALD AVE,"(41.792251, -87.6442469)",41.792251, -87.6442469
8301 S DAMEN AVE,"(41.7421561, -87.6725764)",41.7421561, -87.6725764
1820 W GRANVILLE AVE,"(41.9948698, -87.6770939)",41.9948698, -87.6770939
5500 W MADISON ST,"(41.8809312, -87.7640378)",41.8809312, -87.7640378
6201 S STEWART AVE,"(41.7820213, -87.6342184)",41.7820213, -87.6342184
4223 W 25TH ST,"(41.8457328, -87.7302289)",41.8457328, -87.7302289
2230 W CORTLAND ST,"(41.9161135, -87.6831924)",41.9161135, -87.6831924
3600 W FIFTH AVE,"(41.87607939999999, -87.71646849999999)",41.87607939999999, -87.71646849999999
1405 N WASHTENAW AVE,"(41.9069483, -87.6941154)",41.9069483, -87.6941154
710 W 61ST PL,"(41.782774, -87.6430759)",41.782774, -87.6430759
1865 W MONTVALE AVE,"(41.689107, -87.669517)",41.689107, -87.669517
520 N MARSHFIELD STREET,"(41.8914182, -87.6688319)",41.8914182, -87.6688319
7687 S SOUTH CHICAGO AVE,"(41.7549485, -87.5900638)",41.7549485, -87.5900638
9800 S PARNELL AVE,"(41.7157214, -87.6375936)",41.7157214, -87.6375936
1707 N LA SALLE ST,"(41.9132237, -87.6332098)",41.9132237, -87.6332098
9130 S VINCENNES AVE,"(41.7281366, -87.64854489999999)",41.7281366, -87.64854489999999
3419 S BELL AVE,"(41.83173910000001, -87.68109489999999)",41.83173910000001, -87.68109489999999
3537 S PAULINA ST,"(41.8290346, -87.66755839999999)",41.8290346, -87.66755839999999
631 W BELMONT AVE,"(41.93986779999999, -87.6456551)",41.93986779999999, -87.6456551
9811 S LOWE AVE,"(41.7156457, -87.63896930000001)",41.7156457, -87.63896930000001
9814 S EWING AVE,"(41.7172417, -87.5352767)",41.7172417, -87.5352767
7946 S ASHLAND AVE,"(41.7490917, -87.6637731)",41.7490917, -87.6637731
6201 S FAIRFIELD AVE,"(41.7806058, -87.69160629999999)",41.7806058, -87.69160629999999
3020 N LAMON AVE,"(41.9355906, -87.7506105)",41.9355906, -87.7506105
3250 W MONROE ST,"(41.8798883, -87.7082623)",41.8798883, -87.7082623
5414 N LINDER AVE,"(41.9802178, -87.76656679999999)",41.9802178, -87.76656679999999
2345 S CHRISTIANA AVE,"(41.8493374, -87.7083014)",41.8493374, -87.7083014
1750 E 78TH ST,"(41.7535399, -87.5813204)",41.7535399, -87.5813204
2012 W BELMONT AVE,"(41.939563, -87.67915939999999)",41.939563, -87.67915939999999
11220 S WALLACE ST,"(41.6896803, -87.63835449999999)",41.6896803, -87.63835449999999
1415 E 70TH ST,"(41.7673044, -87.5902468)",41.7673044, -87.5902468
10436 S WALLACE ST,"(41.7042165, -87.6383391)",41.7042165, -87.6383391
10041 S UNION AVE,"(41.7110227, -87.6402505)",41.7110227, -87.6402505
9501 S EGGLESTON AVE,"(41.7215108, -87.63395969999999)",41.7215108, -87.63395969999999
7019 N ASHLAND BL,"(42.00962810000001, -87.6694199)",42.00962810000001, -87.6694199
5100 N RIDGEWAY AVE,"(41.9739865, -87.7223829)",41.9739865, -87.7223829
1822 W LARCHMONT AVE,"(41.953537, -87.675045)",41.953537, -87.675045
2332 S WESTERN AVE,"(41.8494453, -87.6869415)",41.8494453, -87.6869415
6145 S INGLESIDE AVE,"(41.7828402, -87.60273699999999)",41.7828402, -87.60273699999999
2554 W MOFFAT ST,"(41.9148126, -87.69190929999999)",41.9148126, -87.69190929999999
6600 S WOODLAWN AVE,"(41.7750194, -87.59606149999999)",41.7750194, -87.59606149999999
3235 N LECLAIRE AVE,"(41.9397716, -87.7527327)",41.9397716, -87.7527327
5073 W BERWYN AVE,"(41.977859, -87.7540999)",41.977859, -87.7540999
9025 S THROOP ST,"(41.7299219, -87.65497289999999)",41.7299219, -87.65497289999999
1313 S THROOP ST,"(41.864722, -87.6588229)",41.864722, -87.6588229
1400 W 84TH ST,"(41.7413927, -87.6583636)",41.7413927, -87.6583636
8530 S WOOD ST,"(41.7386327, -87.6685596)",41.7386327, -87.6685596
751 N STATE ST,"(41.8964647, -87.62761069999999)",41.8964647, -87.62761069999999
330 W WEBSTER AVE,"(41.92319519999999, -87.6384928)",41.92319519999999, -87.6384928
328 W 69TH ST,"(41.7692969, -87.6337463)",41.7692969, -87.6337463
1449 S KOLIN AVE,"(41.861171, -87.7335878)",41.861171, -87.7335878
225 W EVERGREEN AVE,"(41.9060674, -87.6359593)",41.9060674, -87.6359593
4027 W GRENSHAW ST,"(41.8668215, -87.7262167)",41.8668215, -87.7262167
1409 N OGDEN AVE,"(41.907126, -87.6461697)",41.907126, -87.6461697
4214 S ST LAWRENCE AVE,"(41.8180574, -87.61232790000001)",41.8180574, -87.61232790000001
331 W 45TH ST,"(41.8122536, -87.63460839999999)",41.8122536, -87.63460839999999
5300 S HERMITAGE AVE,"(41.7971263, -87.6687067)",41.7971263, -87.6687067
2010 N CENTRAL PARK AVE,"(41.9177477, -87.7171339)",41.9177477, -87.7171339
2415 W 55TH ST,"(41.7938644, -87.68454709999999)",41.7938644, -87.68454709999999
5630 S ROCKWELL ST,"(41.7910307, -87.6897308)",41.7910307, -87.6897308
7631 N ASHLAND AVE,"(42.020606, -87.6707064)",42.020606, -87.6707064
1631 W JONQUIL TER,"(42.0206137, -87.6713468)",42.0206137, -87.6713468
5729 W BLOOMINGDALE AVE,"(41.9124286, -87.76898550000001)",41.9124286, -87.76898550000001
820 S CARPENTER ST,"(41.871056, -87.65372740000001)",41.871056, -87.65372740000001
10347 S EWING AVE,"(41.7068834, -87.5349293)",41.7068834, -87.5349293
1035 W 117TH ST,"(41.6813598, -87.6482073)",41.6813598, -87.6482073
100 N CENTRAL PARK DR,"(41.8814165, -87.715873)",41.8814165, -87.715873
220 WEST 45TH PLACE,"(41.8118355, -87.6321122)",41.8118355, -87.6321122
1520 W POLK ST,"(41.8716496, -87.6652757)",41.8716496, -87.6652757
10309 S MORGAN ST,"(41.7065861, -87.6471333)",41.7065861, -87.6471333
5225 N OAK PARK AVE,"(41.9760619, -87.7958862)",41.9760619, -87.7958862
3740 W 31ST ST,"(41.83787969999999, -87.7187629)",41.83787969999999, -87.7187629
810 E 103RD ST,"(41.7082497, -87.6031819)",41.7082497, -87.6031819
4925 N LINCOLN,"(41.971689, -87.69017730000002)",41.971689, -87.69017730000002
800 W BUENA AVE,"(41.9587256, -87.65024849999999)",41.9587256, -87.65024849999999
7831 S LAWNDALE AVE,"(41.7505657, -87.71335619999999)",41.7505657, -87.71335619999999
3611 E 114TH ST,"(41.687708, -87.5359574)",41.687708, -87.5359574
825 W SHERIDAN RD,"(41.952355, -87.6505937)",41.952355, -87.6505937
9301 S STATE ST,"(41.7252002, -87.6231245)",41.7252002, -87.6231245
3432 W 15TH ST,"(41.8608428, -87.7116411)",41.8608428, -87.7116411
5421 N MENARD AVE,"(41.9791707, -87.7730539)",41.9791707, -87.7730539
1231 S DAMEN AVE,"(41.8653843, -87.67574019999999)",41.8653843, -87.67574019999999
3307 W GLADYS AVE,"(41.87621120000001, -87.70873689999999)",41.87621120000001, -87.70873689999999
4647 W 47TH ST,"(41.8074018, -87.7401728)",41.8074018, -87.7401728
5259 S MAJOR AVE,"(41.7966195, -87.76458799999999)",41.7966195, -87.76458799999999
2236 N ROCKWELL ST,"(41.922683, -87.6932528)",41.922683, -87.6932528
7053 N GLENWOOD AVE,"(42.0109824, -87.66586699999999)",42.0109824, -87.66586699999999
4257 W ADAMS ST,"(41.8775566, -87.7319598)",41.8775566, -87.7319598
500 E 130TH ST,"(41.65912609999999, -87.60969659999999)",41.65912609999999, -87.60969659999999
12302 S STATE ST,"(41.6705466, -87.62318929999999)",41.6705466, -87.62318929999999
4222 W FOSTER AVE,"(41.9762899, -87.7366662)",41.9762899, -87.7366662
2040 W 62ND ST,"(41.7816454, -87.6756705)",41.7816454, -87.6756705
4648 N MALDEN ST,"(41.966724, -87.66300100000001)",41.966724, -87.66300100000001
3633 N CALIFORNIA AVE,"(41.9480946, -87.6973069)",41.9480946, -87.6973069
1255 N ASTOR ST,"(41.9052359, -87.6271677)",41.9052359, -87.6271677
5120 N WINTHROP AVE,"(41.9757851, -87.6582002)",41.9757851, -87.6582002
2725 N LARAMIE AVE,"(41.9303398, -87.7560436)",41.9303398, -87.7560436
4106 W 28TH ST,"(41.8407426, -87.72709610000001)",41.8407426, -87.72709610000001
4436 S UNION AVE,"(41.8134222, -87.6432306)",41.8134222, -87.6432306
2347 S WABASH AVE,"(41.8495905, -87.625416)",41.8495905, -87.625416
3531 W GRAND AVE,"(41.901576, -87.7148699)",41.901576, -87.7148699
7655 S INGLESIDE AVE,"(41.7556929, -87.6012188)",41.7556929, -87.6012188
5445 N CHESTER ST,"(41.978035, -87.83906089999999)",41.978035, -87.83906089999999
145 S CAMPBELL AVE,"(41.8791604, -87.6882174)",41.8791604, -87.6882174
2850 W AVONDALE AVE,"(41.9370397, -87.7051199)",41.9370397, -87.7051199
1518 W 102ND PL,"(41.7074349, -87.66044509999999)",41.7074349, -87.66044509999999
3730 N LARAMIE AVE,"(41.9490944, -87.75741289999999)",41.9490944, -87.75741289999999
832 W SHERIDAN RD,"(41.9531958, -87.6507632)",41.9531958, -87.6507632
6500 N ALGONQUIN AVE,"(41.9991496, -87.7660485)",41.9991496, -87.7660485
2650 W PETERSON AVE,"(41.9906437, -87.6962041)",41.9906437, -87.6962041
1150 W 96TH ST,"(41.7195222, -87.65239419999999)",41.7195222, -87.65239419999999
1729 N KILDARE AVE,"(41.9116005, -87.73370179999999)",41.9116005, -87.73370179999999
3525 S HONORE ST,"(41.8296803, -87.6712481)",41.8296803, -87.6712481
3625 S HOYNE AVE,"(41.8278556, -87.6776525)",41.8278556, -87.6776525
3715 W POLK ST,"(41.8703954, -87.71853519999999)",41.8703954, -87.71853519999999
8524 S GREEN ST,"(41.7387531, -87.6453401)",41.7387531, -87.6453401
5450 W 64TH PL,"(41.7756473, -87.7584057)",41.7756473, -87.7584057
12810 S ESCANABA AVE,"(41.662351, -87.55353749999999)",41.662351, -87.55353749999999
2708 W LAWRENCE AVE,"(41.9687002, -87.6966492)",41.9687002, -87.6966492
7141 S MORGAN ST,"(41.7636438, -87.6489991)",41.7636438, -87.6489991
4420 S SACRAMENTO AVE,"(41.8132768, -87.69924379999999)",41.8132768, -87.69924379999999
2402 N WASHTENAW AVE,"(41.9251779, -87.6952498)",41.9251779, -87.6952498
247 W 23RD PL,"(41.84976150000001, -87.6339015)",41.84976150000001, -87.6339015
6140 S MELVINA AVE,"(41.7804544, -87.7769521)",41.7804544, -87.7769521
6140 S MELVINA AVE,"(41.7804544, -87.7769521)",41.7804544, -87.7769521
4930 S COTTAGE GROVE AVE,"(41.8049928, -87.6071644)",41.8049928, -87.6071644
11411 S EGGLESTON AVE,"(41.6863684, -87.63340769999999)",41.6863684, -87.63340769999999
513 W 72ND ST,"(41.7628279, -87.63769239999999)",41.7628279, -87.63769239999999
1650 W CORNELIA AVE,"(41.9454775, -87.6706494)",41.9454775, -87.6706494
3035 N HOYNE AVE,"(41.9370863, -87.6805212)",41.9370863, -87.6805212
4747 S BISHOP ST,"(41.8072923, -87.6609932)",41.8072923, -87.6609932
2819 W 21ST PL,"(41.8525332, -87.6958882)",41.8525332, -87.6958882
3434 W 77TH ST,"(41.75377640000001, -87.7089941)",41.75377640000001, -87.7089941
4034 W 56TH ST,"(41.7919803, -87.72493779999999)",41.7919803, -87.72493779999999
3021 W DEVON AVE,"(41.9970869, -87.70534610000001)",41.9970869, -87.70534610000001
5635 S INDIANA AVE,"(41.7920273, -87.6207767)",41.7920273, -87.6207767
5411 W FULLERTON AVE,"(41.92332510000001, -87.7621296)",41.92332510000001, -87.7621296
3921 W DIVISION ST,"(41.9026929, -87.72489)",41.9026929, -87.72489
4912 S CALUMET AVE,"(41.8050726, -87.61805389999999)",41.8050726, -87.61805389999999
9652 S MICHIGAN AVE,"(41.7181944, -87.62127720000001)",41.7181944, -87.62127720000001
6520 S WOOD ST,"(41.7749901, -87.6695661)",41.7749901, -87.6695661
6701 S LOWE AVE,"(41.772516, -87.64029699999999)",41.772516, -87.64029699999999
6200 S DREXEL AVE,"(41.7819343, -87.604879)",41.7819343, -87.604879
1824 S WOOD ST,"(41.8569085, -87.671916)",41.8569085, -87.671916
4464 S OAKENWALD AVE,"(41.8140265, -87.5953297)",41.8140265, -87.5953297
1556 E 56TH ST,"(41.793697, -87.5867468)",41.793697, -87.5867468
7525 S HARVARD AVE,"(41.7576032, -87.6323572)",41.7576032, -87.6323572
4540 N HAMLIN AVE,"(41.9637367, -87.72362799999999)",41.9637367, -87.72362799999999
3729 W LELAND ST,"(41.9661979, -87.7218245)",41.9661979, -87.7218245
3319 N CLIFTON AVE,"(41.9422972, -87.65751519999999)",41.9422972, -87.65751519999999
1018 N LARAMIE AVE,"(41.8994959, -87.7562501)",41.8994959, -87.7562501
2936 W 85TH ST,"(41.7390058, -87.697062)",41.7390058, -87.697062
1518 W GRANVILLE AVE,"(41.9947363, -87.66849959999999)",41.9947363, -87.66849959999999
5949 W HURON ST,"(41.892661, -87.7741006)",41.892661, -87.7741006
3010 S PARNELL AVE,"(41.8392179, -87.64083889999999)",41.8392179, -87.64083889999999
4640 S LAMON AVE,"(41.80856259999999, -87.7461579)",41.80856259999999, -87.7461579
4735 S WINCHESTER AVE,"(41.8076877, -87.6734511)",41.8076877, -87.6734511
1954 W 48TH ST,"(41.8069588, -87.67365300000002)",41.8069588, -87.67365300000002
4409 W WILCOX ST,"(41.8783168, -87.736047)",41.8783168, -87.736047
5650 S WOLCOTT AVE,"(41.7907609, -87.67241890000001)",41.7907609, -87.67241890000001
4316 S PRINCETON AVE,"(41.8159706, -87.6338782)",41.8159706, -87.6338782
4250 N ST LOUIS AVE,"(41.9586697, -87.71592419999999)",41.9586697, -87.71592419999999
931 S HOMAN AVE,"(41.8692274, -87.710009)",41.8692274, -87.710009
1326 S AVERS AVE,"(41.8636018, -87.72180999999999)",41.8636018, -87.72180999999999
2131 W MONROE ST,"(41.8796875, -87.6806019)",41.8796875, -87.6806019
610_30 W ADAMS ST,"(41.8796139, -87.64317299999999)",41.8796139, -87.64317299999999
5839 S WOOD ST,"(41.7872259, -87.668464)",41.7872259, -87.668464
2240 N KILBOURN AVE,"(41.9220571, -87.7395626)",41.9220571, -87.7395626
3510 W 55TH ST,"(41.7938358, -87.7119563)",41.7938358, -87.7119563
8344 S COMMERCIAL AVE,"(41.7441524, -87.5530386)",41.7441524, -87.5530386
3711 W DOUGLAS BL,"(41.86150070000001, -87.7183603)",41.86150070000001, -87.7183603
1401 S HAMLIN AVE,"(41.8620834, -87.72017699999999)",41.8620834, -87.72017699999999
8029 W FOREST PRESERVE AVE,"(41.9439797, -87.8277079)",41.9439797, -87.8277079
3244 W AINSLIE ST,"(41.970866, -87.7103849)",41.970866, -87.7103849
4834 N WINTHROP AVE,"(41.970152, -87.658052)",41.970152, -87.658052
11710 S MORGAN ST,"(41.6809259, -87.64743779999999)",41.6809259, -87.64743779999999
644 W 71ST ST,"(41.7655732, -87.64138129999999)",41.7655732, -87.64138129999999
7740 S INGLESIDE AVE,"(41.7542233, -87.60162810000001)",41.7542233, -87.60162810000001
5625 N MC VICKER AVE,"(41.983825, -87.77861899999999)",41.983825, -87.77861899999999
7221 S DOBSON AVE,"(41.763423, -87.59940759999999)",41.763423, -87.59940759999999
1607 E 73RD ST,"(41.7624023, -87.585577)",41.7624023, -87.585577
1104 W 31ST ST,"(41.838398, -87.654055)",41.838398, -87.654055
4052 S ELLIS AVE,"(41.8204261, -87.602851)",41.8204261, -87.602851
3312 W THORNDALE AVE,"(41.9884845, -87.7122215)",41.9884845, -87.7122215
7566 S SOUTH SHORE DR,"(41.7588071, -87.5559803)",41.7588071, -87.5559803
955 W GARFIELD BL,"(41.7936529, -87.64959619999999)",41.7936529, -87.64959619999999
2200 N OAKLEY AVE,"(41.9216453, -87.6850872)",41.9216453, -87.6850872
750 E 40TH ST,"(41.8214902, -87.60770939999999)",41.8214902, -87.60770939999999
3415 W ARTHINGTON ST,"(41.8696937, -87.7117741)",41.8696937, -87.7117741
4325 S RICHMOND ST,"(41.81493409999999, -87.6977459)",41.81493409999999, -87.6977459
1335 W 115TH ST,"(41.684637, -87.655811)",41.684637, -87.655811
1443 W DIVISION ST,"(41.9029929, -87.6642454)",41.9029929, -87.6642454
1900 W TAYLOR ST,"(41.8694558, -87.67397659999999)",41.8694558, -87.67397659999999
2148 S HOMAN AVE,"(41.852127, -87.7104729)",41.852127, -87.7104729
4637 S CHAMPLAIN AVE,"(41.810148, -87.60987500000002)",41.810148, -87.60987500000002
5515 S LOWE AVE,"(41.7933941, -87.64087909999999)",41.7933941, -87.64087909999999
1628 W WASHINGTON BLVD,"(41.883751, -87.6679178)",41.883751, -87.6679178
6416 SO WASHTENAW,"(41.7768811, -87.69120120000001)",41.7768811, -87.69120120000001
3035 W VAN BUREN ST,"(41.8756579, -87.7033878)",41.8756579, -87.7033878
1422 S HAMLIN AVE,"(41.861877, -87.720512)",41.861877, -87.720512
2741 W MONTROSE AVE,"(41.96055399999999, -87.6977103)",41.96055399999999, -87.6977103
5001 S COTTAGE GROVE AVE,"(41.8040531, -87.6064438)",41.8040531, -87.6064438
720 N LOREL AVE,"(41.89354669999999, -87.7599539)",41.89354669999999, -87.7599539
1616 S SPAULDING AVE,"(41.8584975, -87.7084493)",41.8584975, -87.7084493
8905 S CRANDON AVE,"(41.7331395, -87.5677262)",41.7331395, -87.5677262
3417 S HAMILTON AVE,"(41.8316338, -87.6788017)",41.8316338, -87.6788017
4950 W HUBBARD ST,"(41.888903, -87.75003099999999)",41.888903, -87.75003099999999
6200 S HAMLIN AVE,"(41.7805453, -87.71790159999999)",41.7805453, -87.71790159999999
6200 S KIMBARK AVE,"(41.782198, -87.595134)",41.782198, -87.595134
1808 W 99TH ST,"(41.71417599999999, -87.66787699999999)",41.71417599999999, -87.66787699999999
4247 W 15TH ST,"(41.8605835, -87.7325458)",41.8605835, -87.7325458
226 W 104TH ST,"(41.7052674, -87.62896119999999)",41.7052674, -87.62896119999999
632 W 31ST ST,"(41.8380774, -87.6427156)",41.8380774, -87.6427156
1400 N HUMBOLDT DR,"(41.9066384, -87.70143089999999)",41.9066384, -87.70143089999999
1847 N HUMBOLDT BL,"(41.9152275, -87.7012704)",41.9152275, -87.7012704
5946 S PRAIRIE AVE,"(41.786164, -87.61948799999999)",41.786164, -87.61948799999999
1901 W 100TH ST,"(41.7120344, -87.66889979999999)",41.7120344, -87.66889979999999
3849 W 69TH PL,"(41.7664033, -87.7191981)",41.7664033, -87.7191981
6220 S STONY ISLAND AVE,"(41.7821436, -87.5872366)",41.7821436, -87.5872366
5933 N LINCOLN AVE,"(41.98922150000001, -87.7049399)",41.98922150000001, -87.7049399
6435 W BELMONT AVE,"(41.9380041, -87.7875509)",41.9380041, -87.7875509
1431 N PARK AVE,"(41.9083708, -87.6359598)",41.9083708, -87.6359598
8739 S EXCHANGE AVE,"(41.735851, -87.5527832)",41.735851, -87.5527832
7263 W TALCOTT AVE,"(41.9863153, -87.8089803)",41.9863153, -87.8089803
3820 N SPAULDING AVE,"(41.9507422, -87.7107276)",41.9507422, -87.7107276
3945 N SPRINGFIELD AVE,"(41.9534394, -87.7248517)",41.9534394, -87.7248517
2500 W LUNT AVE,"(42.0086904, -87.6923717)",42.0086904, -87.6923717
6010 W MATSON AVE,"(41.9929198, -87.7784161)",41.9929198, -87.7784161
122 S MICHIGAN AVE,"(41.8799204, -87.6248116)",41.8799204, -87.6248116
8700 W BRYN MAWR AVE,"(41.9828932, -87.84330740000001)",41.9828932, -87.84330740000001
749 S OAKLEY BL,"(41.8717354, -87.6832998)",41.8717354, -87.6832998
3815 N KEDVALE AVE,"(41.9504273, -87.73052659999999)",41.9504273, -87.73052659999999
8385 S BIRKHOFF AVE,"(41.7419418, -87.63940989999999)",41.7419418, -87.63940989999999
4319 S INDIANA AVE,"(41.8159852, -87.6213846)",41.8159852, -87.6213846
1340 W HARRISON ST,"(41.87476849999999, -87.66111649999999)",41.87476849999999, -87.66111649999999
917 W 88TH ST,"(41.7338455, -87.6469571)",41.7338455, -87.6469571
4674 N VIRGINIA AVE,"(41.9664309, -87.6980445)",41.9664309, -87.6980445
2731 S ELEANOR ST,"(41.8438708, -87.661141)",41.8438708, -87.661141
3149 N WOLCOTT AVE,"(41.9390936, -87.67531249999999)",41.9390936, -87.67531249999999
1504 S ALBANY AVE,"(41.8611098, -87.70341719999999)",41.8611098, -87.70341719999999
5650 N MOZART ST,"(41.9844136, -87.70096590000001)",41.9844136, -87.70096590000001
1814 S UNION AVE,"(41.8570285, -87.6451072)",41.8570285, -87.6451072
3111 W FULTON BLVD,"(41.886112, -87.70418699999999)",41.886112, -87.70418699999999
1640 S JEFFERSON ST,"(41.858778, -87.64218799999999)",41.858778, -87.64218799999999
4822 N LONG AVE,"(41.9687027, -87.76276279999999)",41.9687027, -87.76276279999999
3740 W BELDEN AVE,"(41.922993, -87.7212713)",41.922993, -87.7212713
1009 N CLEVELAND AVE,"(41.9005972, -87.6411033)",41.9005972, -87.6411033
4600 N LAWNDALE AVE,"(41.9656189, -87.721081)",41.9656189, -87.721081
3030 W HARRISON ST,"(41.8740779, -87.70217)",41.8740779, -87.70217
3145 W PRATT AVE,"(42.00367749999999, -87.708897)",42.00367749999999, -87.708897
3200 W PETERSON AVE,"(41.9912637, -87.7099708)",41.9912637, -87.7099708
6936 S HERMITAGE AVE,"(41.7678338, -87.6675642)",41.7678338, -87.6675642
1420 S ALBANY AVE,"(41.861866, -87.7034175)",41.861866, -87.7034175
1240 S PLYMOUTH CT,"(41.8663563, -87.6284735)",41.8663563, -87.6284735
606 S STATE ST,"(41.8743132, -87.6279679)",41.8743132, -87.6279679
1023 W WRIGHTWOOD AVE,"(41.9289875, -87.6546221)",41.9289875, -87.6546221
7931 S HONORE ST,"(41.7494853, -87.66908699999999)",41.7494853, -87.66908699999999
7414 N WOLCOTT AVE,"(42.0170855, -87.67803099999999)",42.0170855, -87.67803099999999
1501 N OAKLEY BL,"(41.9092512, -87.68409079999999)",41.9092512, -87.68409079999999
1315 S BLUE ISLAND AVE,"(41.864954, -87.654696)",41.864954, -87.654696
2150 S LAFLIN ST,"(41.853725, -87.6636381)",41.853725, -87.6636381
10330 S ELIZABETH ST,"(41.70594639999999, -87.65424)",41.70594639999999, -87.65424
345 W 64TH ST,"(41.7780209, -87.63434889999999)",41.7780209, -87.63434889999999
1746 S MILLER ST,"(41.8586458, -87.6525551)",41.8586458, -87.6525551
3656 N GREENVIEW AVE,"(41.94863, -87.66647069999999)",41.94863, -87.66647069999999
11024 S BELL AVE,"(41.6937764, -87.67716240000001)",41.6937764, -87.67716240000001
5036 S BLACKSTONE AVE,"(41.803162, -87.590881)",41.803162, -87.590881
2233 S KEDZIE AVE,"(41.8504537, -87.70459220000001)",41.8504537, -87.70459220000001
4140 W HIRSCH ST,"(41.9062317, -87.73042769999999)",41.9062317, -87.73042769999999
1243 S KEELER AVE,"(41.8648574, -87.73003469999999)",41.8648574, -87.73003469999999
3020 W 108TH ST,"(41.697413, -87.6969168)",41.697413, -87.6969168
751 S SACRAMENTO BL,"(41.8713107, -87.7006143)",41.8713107, -87.7006143
9241 S LEAVITT ST,"(41.7252339, -87.6768077)",41.7252339, -87.6768077
3201 W CHICAGO AVE,"(41.8955426, -87.7065492)",41.8955426, -87.7065492
3800 N SEMINARY AVE,"(41.9510956, -87.6568135)",41.9510956, -87.6568135
2725 W 41ST ST,"(41.8190606, -87.6938068)",41.8190606, -87.6938068
4136 S CALIFORNIA AVE,"(41.8186133, -87.6951172)",41.8186133, -87.6951172
4438 W WRIGHTWOOD AVE,"(41.928971, -87.7381063)",41.928971, -87.7381063
4343 W WRIGHTWOOD AVE,"(41.92722490000001, -87.7360376)",41.92722490000001, -87.7360376
3141 N KENMORE AVE,"(41.939312, -87.65530299999999)",41.939312, -87.65530299999999
11320 S WESTERN AVE,"(41.6871472, -87.68173019999999)",41.6871472, -87.68173019999999
6325 W 56TH ST,"(41.7902256, -87.78031639999999)",41.7902256, -87.78031639999999
4434 S LAKE PARK AVE,"(41.8142925, -87.5972855)",41.8142925, -87.5972855
345 E 118TH ST,"(41.6799322, -87.6161269)",41.6799322, -87.6161269
2945 N KENOSHA AVE,"(41.93488809999999, -87.73366329999999)",41.93488809999999, -87.73366329999999
5015 S BLACKSTONE AVE,"(41.8035048, -87.5900132)",41.8035048, -87.5900132
1330 E 50TH ST,"(41.8047591, -87.5943398)",41.8047591, -87.5943398
6450 S LOWE AVE,"(41.776679, -87.6413967)",41.776679, -87.6413967
517 N PARKSIDE AVE,"(41.890019, -87.76607399999999)",41.890019, -87.76607399999999
1655 N KEYSTONE AVE,"(41.9114723, -87.7275949)",41.9114723, -87.7275949
3501 N KILBOURN AVE,"(41.9446117, -87.7394581)",41.9446117, -87.7394581
6700 N GREENVIEW AVE,"(42.0041902, -87.6684729)",42.0041902, -87.6684729
740 S CAMPBELL AVE,"(41.8717523, -87.68962230000001)",41.8717523, -87.68962230000001
1212 W 77TH ST,"(41.7541202, -87.6543617)",41.7541202, -87.6543617
4445 S DREXEL BL,"(41.8138729, -87.60296009999999)",41.8138729, -87.60296009999999
5200 W KINZIE ST,"(41.8878055, -87.7553167)",41.8878055, -87.7553167
5625 S MOBILE AVE,"(41.7902142, -87.77902429999999)",41.7902142, -87.77902429999999
9351 S LOWE AVE,"(41.7237047, -87.6390588)",41.7237047, -87.6390588
4820 W WALTON ST,"(41.8979858, -87.7469217)",41.8979858, -87.7469217
3315 W CARMEN AVE,"(41.97362469999999, -87.7110707)",41.97362469999999, -87.7110707
10414 S STATE ST,"(41.7048032, -87.6240471)",41.7048032, -87.6240471
4143 N KOLMAR AVE,"(41.9570303, -87.7418483)",41.9570303, -87.7418483
6156 N CLAREMONT AVE,"(41.9939266, -87.6885398)",41.9939266, -87.6885398
2732 N AVERS AVE,"(41.9315116, -87.7237361)",41.9315116, -87.7237361
936 E 54TH ST,"(41.7984806, -87.6023927)",41.7984806, -87.6023927
10558 S AVE L,"(41.7028549, -87.5368764)",41.7028549, -87.5368764
1635 W 33RD PL,"(41.8330466, -87.6666722)",41.8330466, -87.6666722
901 E 95TH ST,"(41.7220856, -87.60086989999999)",41.7220856, -87.60086989999999
1720 W 87TH ST,"(41.736052, -87.6663669)",41.736052, -87.6663669
1132 S HOMAN AVE,"(41.86712319999999, -87.7109965)",41.86712319999999, -87.7109965
1333 N LARAMIE AVE,"(41.90531439999999, -87.7552631)",41.90531439999999, -87.7552631
2714 W AUGUSTA BL,"(41.8994704, -87.6948413)",41.8994704, -87.6948413
3113 S RHODES AVE,"(41.8378996, -87.61336430000001)",41.8378996, -87.61336430000001
254 E CHICAGO AVE,"(41.896789, -87.6206212)",41.896789, -87.6206212
300 W HILL ST,"(41.9032652, -87.6361178)",41.9032652, -87.6361178
5611 N CLARK ST,"(41.9839098, -87.6685299)",41.9839098, -87.6685299
716 W ADDISON ST,"(41.94757269999999, -87.6478523)",41.94757269999999, -87.6478523
4015 N ASHLAND AVE,"(41.9552279, -87.6686125)",41.9552279, -87.6686125
1400 W 109TH ST,"(41.6958166, -87.65710220000001)",41.6958166, -87.65710220000001
2501 W ADDISON ST,"(41.945431, -87.690618)",41.945431, -87.690618
1754 W ALBION AVE,"(42.0016337, -87.67452180000001)",42.0016337, -87.67452180000001
700 E 113TH ST,"(41.689016, -87.603093)",41.689016, -87.603093
4619 S WOLCOTT AVE,"(41.81005500000001, -87.6722915)",41.81005500000001, -87.6722915
1734 N ORLEANS ST,"(41.9138171, -87.63804300000001)",41.9138171, -87.63804300000001
1440 S CHRISTIANA AVE,"(41.861415, -87.709653)",41.861415, -87.709653
59 W NORTH BL,"(41.9107716, -87.6312389)",41.9107716, -87.6312389
1531 N DEARBORN PKWY,"(41.910463, -87.62978690000001)",41.910463, -87.62978690000001
2001 S CALIFORNIA AVE,"(41.8546431, -87.69524609999999)",41.8546431, -87.69524609999999
138 W 109TH ST,"(41.696449, -87.62705679999999)",41.696449, -87.62705679999999
5210 W 64TH ST,"(41.7760009, -87.75244070000001)",41.7760009, -87.75244070000001
3500 W DOUGLAS BL,"(41.8631549, -87.7132915)",41.8631549, -87.7132915
9928 S CRANDON AVE,"(41.7092873, -87.5665387)",41.7092873, -87.5665387
4833 N FRANCISCO AVE,"(41.9695232, -87.70005429999999)",41.9695232, -87.70005429999999
1257 W COLUMBIA AVE,"(42.0044954, -87.6630931)",42.0044954, -87.6630931
5116 W 44TH ST,"(41.8129778, -87.7526003)",41.8129778, -87.7526003
5911 W MIDWAY PARK,"(41.888698, -87.77265299999999)",41.888698, -87.77265299999999
3700 W 87TH ST,"(41.735266, -87.714333)",41.735266, -87.714333
6448 S TRIPP AVE,"(41.7753601, -87.7293478)",41.7753601, -87.7293478
3100 W BRYN MAWR AVE,"(41.9830805, -87.70685979999999)",41.9830805, -87.70685979999999
5221 W CONGRESS PKWY,"(41.8739211, -87.75558079999999)",41.8739211, -87.75558079999999
7526 S LOWE AVE,"(41.7567282, -87.6408135)",41.7567282, -87.6408135
851 W WAVELAND AVE,"(41.9487247, -87.65127)",41.9487247, -87.65127
8101 S LA SALLE ST,"(41.7466777, -87.6275455)",41.7466777, -87.6275455
7901 S SANGAMON ST,"(41.7503284, -87.64707349999999)",41.7503284, -87.64707349999999
7000 N SACRAMENTO AVE,"(42.0097216, -87.7044793)",42.0097216, -87.7044793
462 N PINE AVE,"(41.8891912, -87.76334609999999)",41.8891912, -87.76334609999999
1431 N LEAMINGTON AVE,"(41.9070671, -87.75431859999999)",41.9070671, -87.75431859999999
5300 S LOOMIS BL,"(41.7972148, -87.6600442)",41.7972148, -87.6600442
6207 S UNIVERSITY AVE,"(41.7821475, -87.5976348)",41.7821475, -87.5976348
632 W 71ST ST,"(41.7651164, -87.6398945)",41.7651164, -87.6398945
2410 S TRUMBULL AVE,"(41.847536, -87.71156200000001)",41.847536, -87.71156200000001
1735 S STATE ST,"(41.8585918, -87.6271587)",41.8585918, -87.6271587
615 W KEMPER PL,"(41.9243523, -87.6445328)",41.9243523, -87.6445328
2001 N ORCHARD ST,"(41.9191218, -87.64555089999999)",41.9191218, -87.64555089999999
6054 S DAMEN AVE,"(41.7834138, -87.6746801)",41.7834138, -87.6746801
6130 S WOLCOTT AVE,"(41.78208730000001, -87.67215379999999)",41.78208730000001, -87.67215379999999
1139 N PULASKI RD,"(41.9021446, -87.7262842)",41.9021446, -87.7262842
3221 N SACRAMENTO AVE,"(41.9402447, -87.70213559999999)",41.9402447, -87.70213559999999
5117 N LINCOLN AVE,"(41.9747178, -87.6916906)",41.9747178, -87.6916906
2324 WEST 111TH ST,"(41.69208160000001, -87.6797594)",41.69208160000001, -87.6797594
10809 S AVE F,"(41.6987467, -87.5302035)",41.6987467, -87.5302035
2251 W 50TH PL,"(41.8018799, -87.68150949999999)",41.8018799, -87.68150949999999
2620 S LAWNDALE AVE,"(41.8429471, -87.7175044)",41.8429471, -87.7175044
3120 S KOSTNER AVE,"(41.8351557, -87.73557369999999)",41.8351557, -87.73557369999999
9511 S COMMERCIAL AVE,"(41.7225637, -87.5509527)",41.7225637, -87.5509527
2103 N LAMON AVE,"(41.919018, -87.7482678)",41.919018, -87.7482678
2845 N NEWCASTLE AVE,"(41.9316111, -87.79638279999999)",41.9316111, -87.79638279999999
3125 W JACKSON BL,"(41.8773313, -87.7042877)",41.8773313, -87.7042877
3212 W GEORGE ST,"(41.9342571, -87.70799070000001)",41.9342571, -87.70799070000001
3432 W 18TH ST,"(41.8571839, -87.71153489999999)",41.8571839, -87.71153489999999
3231 N. SPRINGFIELD AVE,"(41.9400535, -87.7242263)",41.9400535, -87.7242263
3344 W 79TH ST,"(41.7500187, -87.7067368)",41.7500187, -87.7067368
6333 W BLOOMINGDALE AVE,"(41.9126297, -87.78426280000001)",41.9126297, -87.78426280000001
5203 S LOWE AVE,"(41.7995956, -87.6416314)",41.7995956, -87.6416314
3320 W HIRSCH ST,"(41.9067042, -87.71053189999999)",41.9067042, -87.71053189999999
1501 N GREENVIEW AVE,"(41.90920190000001, -87.66477520000001)",41.90920190000001, -87.66477520000001
1424 N CLEAVER ST,"(41.90779029999999, -87.6647351)",41.90779029999999, -87.6647351
2756 W MORSE AVE,"(42.0069136, -87.6995628)",42.0069136, -87.6995628
6350 N WHIPPLE ST,"(41.9972629, -87.7060951)",41.9972629, -87.7060951
10021 S LUELLA AVE,"(41.7129127, -87.5682047)",41.7129127, -87.5682047
5558 S GREEN ST,"(41.7925922, -87.64633359999999)",41.7925922, -87.64633359999999
2239 W LUNT AVE,"(42.0087052, -87.687484)",42.0087052, -87.687484
5700 W BERTEAU AVE,"(41.9574434, -87.7703645)",41.9574434, -87.7703645
3130 W 87TH ST,"(41.735285, -87.7003654)",41.735285, -87.7003654
613 W BITTERSWEET PL,"(41.9552378, -87.646237)",41.9552378, -87.646237
4300 W IRVING PARK RD,"(41.953954, -87.7359769)",41.953954, -87.7359769
7700 S WALLACE ST,"(41.7542973, -87.6398482)",41.7542973, -87.6398482
2941 N MC VICKER AVE,"(41.934333, -87.77688859999999)",41.934333, -87.77688859999999
3800 S RHODES AVE,"(41.8256695, -87.61439709999999)",41.8256695, -87.61439709999999
3202 W 28TH ST,"(41.841524, -87.7052983)",41.841524, -87.7052983
7433 S DORCHESTER AVE,"(41.7600198, -87.5904492)",41.7600198, -87.5904492
3228 W FLOURNOY ST,"(41.8727598, -87.7071345)",41.8727598, -87.7071345
5426 S SHIELDS AVE,"(41.79545400000001, -87.6345319)",41.79545400000001, -87.6345319
900 E PERSHING RD.,"(41.8236861, -87.6074701)",41.8236861, -87.6074701
1420 N HUDSON AVE,"(41.907759, -87.6402971)",41.907759, -87.6402971
2935 W POLK ST,"(41.8705589, -87.6997119)",41.8705589, -87.6997119
3035 E 130TH ST,"(41.6591714, -87.549461)",41.6591714, -87.549461
8050 S CHAPPEL AVE,"(41.7488009, -87.5754114)",41.7488009, -87.5754114
2047 N SPAULDING AVE,"(41.9187159, -87.71027219999999)",41.9187159, -87.71027219999999
1640 N MAPLEWOOD AVE,"(41.9112273, -87.6909058)",41.9112273, -87.6909058
230 N KOLMAR AVE,"(41.8842896, -87.7394384)",41.8842896, -87.7394384
6727 S CALIFORNIA AVE,"(41.7709745, -87.69251009999999)",41.7709745, -87.69251009999999
1031 N RUSH ST,"(41.901786, -87.6277908)",41.901786, -87.6277908
4200 W 115TH ST,"(41.6848219, -87.72404379999999)",41.6848219, -87.72404379999999
6734 S KEDZIE AVE,"(41.7709893, -87.7030318)",41.7709893, -87.7030318
6550 S RICHMOND ST,"(41.77517719999999, -87.6971257)",41.77517719999999, -87.6971257
9810 S EXCHANGE AVE,"(41.7168807, -87.55237699999999)",41.7168807, -87.55237699999999
3250 W ADAMS ST,"(41.8790132, -87.70698709999999)",41.8790132, -87.70698709999999
3900 N LAWNDALE AVE,"(41.9522637, -87.72047649999999)",41.9522637, -87.72047649999999
1637 W 87TH ST,"(41.7357665, -87.6644002)",41.7357665, -87.6644002
922 W FLETCHER ST,"(41.939215, -87.652666)",41.939215, -87.652666
8035 S HONORE ST,"(41.74726099999999, -87.669055)",41.74726099999999, -87.669055
4217 W 18TH ST,"(41.8564752, -87.73081359999999)",41.8564752, -87.73081359999999
4100 W WEST END AVE,"(41.8834826, -87.7285216)",41.8834826, -87.7285216
6622 S DR MARTIN LUTHER KING,"(41.7740245, -87.61549)",41.7740245, -87.61549
6937 N RIDGE BLVD,"(42.0076725, -87.6813073)",42.0076725, -87.6813073
1537 N LAWNDALE AVE,"(41.9092399, -87.71884899999999)",41.9092399, -87.71884899999999
5835 N LINCOLN AVE,"(41.98791629999999, -87.70114430000001)",41.98791629999999, -87.70114430000001
5835 N LINCOLN AVE,"(41.98791629999999, -87.70114430000001)",41.98791629999999, -87.70114430000001
512 S LAVERGNE AVE,"(41.8736435, -87.7557412)",41.8736435, -87.7557412
2250 N CLIFTON AVE,"(41.9229612, -87.6576992)",41.9229612, -87.6576992
4550 W SUNNYSIDE AVE,"(41.9630974, -87.7420401)",41.9630974, -87.7420401
249 E 37TH ST,"(41.8271544, -87.61983459999999)",41.8271544, -87.61983459999999
838 W MARQUETTE RD,"(41.77270800000001, -87.646416)",41.77270800000001, -87.646416
1800 W GARFIELD BL,"(41.7939677, -87.66949509999999)",41.7939677, -87.66949509999999
1841 N SPRINGFIELD AVE,"(41.9146393, -87.7234738)",41.9146393, -87.7234738
3527 S WALLACE ST,"(41.8303654, -87.6408429)",41.8303654, -87.6408429
2712 S SAWYER AVE,"(41.8420103, -87.70659309999999)",41.8420103, -87.70659309999999
6543 S CHAMPLAIN AVE,"(41.77535839999999, -87.60908169999999)",41.77535839999999, -87.60908169999999
4865 N SHERIDAN RD,"(41.9711969, -87.6544481)",41.9711969, -87.6544481
4850 N KENMORE AVE,"(41.9705619, -87.6562558)",41.9705619, -87.6562558
8801 S INDIANA AVE,"(41.734354, -87.618014)",41.734354, -87.618014
1419 E 89TH ST,"(41.7328045, -87.5899013)",41.7328045, -87.5899013
2901 S POPLAR AVE,"(41.8411442, -87.6485994)",41.8411442, -87.6485994
4446_58 S. EMERALD AVE,"(41.8130543, -87.64443709999999)",41.8130543, -87.64443709999999
6901 S FAIRFIELD AVE,"(41.7677443, -87.6915121)",41.7677443, -87.6915121
600 W 36TH ST,"(41.8289869, -87.6411854)",41.8289869, -87.6411854
10714 S SAWYER AVE,"(41.6983547, -87.7024805)",41.6983547, -87.7024805
2210 W PERSHING RD,"(41.8237382, -87.6824446)",41.8237382, -87.6824446
2744 W PERSHING RD,"(41.8230744, -87.6942013)",41.8230744, -87.6942013
2647 E 88TH ST,"(41.7353585, -87.5594199)",41.7353585, -87.5594199
4728 N WOLCOTT AVE,"(41.9681459, -87.6769468)",41.9681459, -87.6769468
1301 W 14TH ST,"(41.8629807, -87.6596682)",41.8629807, -87.6596682
1600 W BRYN MAWR AVE,"(41.9834662, -87.6699028)",41.9834662, -87.6699028
412 S KEELER AVE,"(41.8747409, -87.73078629999999)",41.8747409, -87.73078629999999
149 W 73RD ST,"(41.7618091, -87.6285999)",41.7618091, -87.6285999
2131 E 96TH ST,"(41.7206681, -87.57287409999999)",41.7206681, -87.57287409999999
6343 W IRVING PARK RD,"(41.9526427, -87.7851891)",41.9526427, -87.7851891
3736 N MARSHFIELD AVE,"(41.9499159, -87.6701562)",41.9499159, -87.6701562
6200 W PATTERSON AVE,"(41.94679, -87.7816663)",41.94679, -87.7816663
4196 S STATE ST,"(41.8183525, -87.6263697)",41.8183525, -87.6263697
12339 S NORMAL AVE,"(41.6694238, -87.6340462)",41.6694238, -87.6340462
7140 S DR MARTIN LUTHER KING,"(41.7646673, -87.6157549)",41.7646673, -87.6157549
2754 S TRUMBULL AVE,"(41.8409073, -87.71139099999999)",41.8409073, -87.71139099999999
5311 S HAMILTON AVE,"(41.7970054, -87.6780139)",41.7970054, -87.6780139
401 W BELDEN AVE,"(41.9237493, -87.63938739999999)",41.9237493, -87.63938739999999
5950 S WOODLAWN AVE,"(41.7859785, -87.59633269999999)",41.7859785, -87.59633269999999
3465 NORTH CICERO AVE,"(41.9442648, -87.7466905)",41.9442648, -87.7466905
1331 S MILLARD AVE,"(41.8635725, -87.7162908)",41.8635725, -87.7162908
205 E RANDOLPH ST,"(41.8838832, -87.6218691)",41.8838832, -87.6218691
848 S MILLER ST,"(41.8704061, -87.65225559999999)",41.8704061, -87.65225559999999
5940 S CENTRAL AVE,"(41.78416, -87.762312)",41.78416, -87.762312
9000 S EXCHANGE AVE,"(41.7311453, -87.5533088)",41.7311453, -87.5533088
2916 W 47TH ST,"(41.8086002, -87.6971974)",41.8086002, -87.6971974
2060 W GRANVILLE AVE,"(41.994761, -87.68183049999999)",41.994761, -87.68183049999999
2233 W OHIO ST,"(41.8919352, -87.6834926)",41.8919352, -87.6834926
6446 S KIMBARK AVE,"(41.777334, -87.59502400000001)",41.777334, -87.59502400000001
4415 S DR MARTIN LUTHER KING,"(41.81419090000001, -87.6164524)",41.81419090000001, -87.6164524
3651 W SCHUBERT AVE,"(41.9295238, -87.71908289999999)",41.9295238, -87.71908289999999
1310 S ASHLAND AVE,"(41.8646238, -87.6669594)",41.8646238, -87.6669594
1501 W FULLERTON AVE,"(41.9249831, -87.665897)",41.9249831, -87.665897
2632 W 66TH ST,"(41.7736759, -87.6896336)",41.7736759, -87.6896336
1814 N MONTICELLO AVE,"(41.9141528, -87.7178741)",41.9141528, -87.7178741
6700 N AVONDALE AVE,"(42.0021942, -87.8184285)",42.0021942, -87.8184285
5085 W ADAMS ST,"(41.8780522, -87.7527466)",41.8780522, -87.7527466
1711 N CALIFORNIA AVE,"(41.9130714, -87.69633499999999)",41.9130714, -87.69633499999999
5727 S RACINE AVE,"(41.7896317, -87.6545847)",41.7896317, -87.6545847
11710 S MORGAN ST,"(41.6809259, -87.64743779999999)",41.6809259, -87.64743779999999
8407 S KERFOOT AVE,"(41.7413469, -87.6396041)",41.7413469, -87.6396041
2153 W 111TH ST,"(41.6915158, -87.6756351)",41.6915158, -87.6756351
1744 W PRYOR AVE,"(41.6919264, -87.66576959999999)",41.6919264, -87.66576959999999
6011 S ROCKWELL ST,"(41.7840429, -87.6880979)",41.7840429, -87.6880979
431 N TROY ST,"(41.8890389, -87.704657)",41.8890389, -87.704657
3737 W 99TH ST,"(41.712273, -87.716352)",41.712273, -87.716352
6410 S DANTE AVE,"(41.77866119999999, -87.589582)",41.77866119999999, -87.589582
3724 W 111TH ST,"(41.6913567, -87.71420309999999)",41.6913567, -87.71420309999999
2200 N HAMLIN AVE,"(41.9213743, -87.7224669)",41.9213743, -87.7224669
2036 N AVERS AVE,"(41.9176511, -87.7235197)",41.9176511, -87.7235197
720 W BELMONT AVE,"(41.9402051, -87.64756849999999)",41.9402051, -87.64756849999999
10841 S HOMAN AVE,"(41.6960718, -87.7052305)",41.6960718, -87.7052305
10540 S MORGAN ST,"(41.702288, -87.6483837)",41.702288, -87.6483837
7351 S STONY ISLAND AVE,"(41.7610725, -87.58478989999999)",41.7610725, -87.58478989999999
3150 S ROBINSON CT,"(41.837083, -87.667485)",41.837083, -87.667485
5873 N NINA AVE,"(41.9878081, -87.8033045)",41.9878081, -87.8033045
2617 W 105TH ST,"(41.7017894, -87.6869124)",41.7017894, -87.6869124
3539 W GRACE ST,"(41.9497364, -87.7170874)",41.9497364, -87.7170874
1743 W 73RD ST,"(41.7610873, -87.667889)",41.7610873, -87.667889
5335 S KENWOOD AVE,"(41.7980014, -87.5934479)",41.7980014, -87.5934479
6113 N NEVA AVE,"(41.9928646, -87.805627)",41.9928646, -87.805627
1833 E 71ST ST,"(41.7660312, -87.57982419999999)",41.7660312, -87.57982419999999
4837 W ERIE ST,"(41.8920702, -87.7472655)",41.8920702, -87.7472655
55 W CERMAK RD,"(41.8526024, -87.6292349)",41.8526024, -87.6292349
6820 S WASHTENAW AVE,"(41.7692066, -87.6909357)",41.7692066, -87.6909357
1434 W DIVISION ST,"(41.9036803, -87.664261)",41.9036803, -87.664261
739 N ADA ST,"(41.89539, -87.6611199)",41.89539, -87.6611199
2533 N SACRAMENTO AVE,"(41.92765199999999, -87.70202599999999)",41.92765199999999, -87.70202599999999
8555 S MICHIGAN AVE,"(41.7386141, -87.62057639999999)",41.7386141, -87.62057639999999
2953 W NELSON ST,"(41.9373001, -87.70181579999999)",41.9373001, -87.70181579999999
3252 N BROADWAY,"(41.94155569999999, -87.6451008)",41.94155569999999, -87.6451008
1707 W. MORSE AVE,"(42.0073304, -87.67269619999999)",42.0073304, -87.67269619999999
6737 W FOREST PRESERVE AVE,"(41.9586877, -87.7957466)",41.9586877, -87.7957466
2300 N NARRAGANSETT AVE,"(41.922026, -87.785743)",41.922026, -87.785743
700 W WILLOW ST,"(41.914397, -87.6465655)",41.914397, -87.6465655
1929 W 87TH ST,"(41.7353662, -87.67144789999999)",41.7353662, -87.67144789999999
1342 E 54TH ST,"(41.7980245, -87.5923096)",41.7980245, -87.5923096
6006 S PEORIA ST,"(41.7844599, -87.6478959)",41.7844599, -87.6478959
5250 S ROCKWELL ST,"(41.7981868, -87.68941559999999)",41.7981868, -87.68941559999999
1447_1453 S HARDING AVE,"(41.861065, -87.723445)",41.861065, -87.723445
2121 N KEELER AVE,"(41.91952149999999, -87.7309143)",41.91952149999999, -87.7309143
4127 W HIRSCH ST,"(41.9062393, -87.7300539)",41.9062393, -87.7300539
7200 S INGLESIDE AVE,"(41.7640694, -87.6024357)",41.7640694, -87.6024357
1460 W SUPERIOR ST,"(41.8952034, -87.664611)",41.8952034, -87.664611
1 NORTH STATE ST,"(41.8824143, -87.62724879999999)",41.8824143, -87.62724879999999
3645 W CHICAGO AVE,"(41.89518580000001, -87.718132)",41.89518580000001, -87.718132
1400 W AUGUSTA BL,"(41.9000176, -87.6627352)",41.9000176, -87.6627352
2645 N SHEFFIELD AVE,"(41.9305329, -87.65343399999999)",41.9305329, -87.65343399999999
6660 W 52ND ST,"(41.7977577, -87.78857459999999)",41.7977577, -87.78857459999999
5104 W BELMONT,"(41.9389496, -87.7545167)",41.9389496, -87.7545167
4537 W CARMEN AVE,"(41.9734347, -87.7420959)",41.9734347, -87.7420959
4416 N. TROY ST,"(41.9619799, -87.70763199999999)",41.9619799, -87.70763199999999
5220 N CALIFORNIA AVE,"(41.9763222, -87.69919209999999)",41.9763222, -87.69919209999999
3730 W BRYN MAWR AVE,"(41.9833796, -87.72158879999999)",41.9833796, -87.72158879999999
4338 W WABANSIA AVE,"(41.9126532, -87.73538669999999)",41.9126532, -87.73538669999999
5501 N KEDZIE AVE,"(41.9812798, -87.7078105)",41.9812798, -87.7078105
5108 W DIVISION ST,"(41.9025344, -87.7537794)",41.9025344, -87.7537794
5252 W PALMER ST,"(41.9211098, -87.7578772)",41.9211098, -87.7578772
5801 N NATOMA AVE,"(41.98662270000001, -87.79342799999999)",41.98662270000001, -87.79342799999999
7117 W PETERSON AVE,"(41.9900076, -87.80448489999999)",41.9900076, -87.80448489999999
5900 N NINA AVE,"(41.9892412, -87.8026524)",41.9892412, -87.8026524
7101 W 63RD ST,"(41.777082, -87.79858899999999)",41.777082, -87.79858899999999
3105 N OAK PARK AVE,"(41.9365175, -87.7952629)",41.9365175, -87.7952629
965 W 95TH ST,"(41.721005, -87.6485124)",41.721005, -87.6485124
9440 S VINCENNES AVE,"(41.7222606, -87.65065799999999)",41.7222606, -87.65065799999999
910 E PERSHING RD,"(41.8249607, -87.60390439999999)",41.8249607, -87.60390439999999
6441 S OAKLEY AVE,"(41.776153, -87.680634)",41.776153, -87.680634
2401 W CONGRESS PKWY,"(41.8746515, -87.6865777)",41.8746515, -87.6865777
6500 S RACINE AVE,"(41.7750512, -87.6553561)",41.7750512, -87.6553561
429 N COLUMBUS DR,"(41.8888235, -87.6203965)",41.8888235, -87.6203965
7646 S GREEN ST,"(41.7547862, -87.64596929999999)",41.7547862, -87.64596929999999
8335 S HONORE ST,"(41.742683, -87.6692724)",41.742683, -87.6692724
4712 W OHIO ST,"(41.8915896, -87.7443417)",41.8915896, -87.7443417
607 N HARDING AVE,"(41.8921082, -87.7247632)",41.8921082, -87.7247632
6940 S MERRILL AVE,"(41.7686287, -87.57317309999999)",41.7686287, -87.57317309999999
1532 S MICHIGAN AVE,"(41.8610023, -87.6244461)",41.8610023, -87.6244461
6566 N AVONDALE AVE,"(41.9993519, -87.81517430000001)",41.9993519, -87.81517430000001
6634 W RAVEN ST,"(41.99379039999999, -87.7931364)",41.99379039999999, -87.7931364
5430 N OLCOTT AVE,"(41.9782824, -87.8144555)",41.9782824, -87.8144555
5424 N OKETO AVE,"(41.9787093, -87.8123964)",41.9787093, -87.8123964
1940 W 18TH ST,"(41.8579753, -87.6750643)",41.8579753, -87.6750643
1940 W 18TH ST,"(41.8579753, -87.6750643)",41.8579753, -87.6750643
744 N PULASKI RD,"(41.8943307, -87.726035)",41.8943307, -87.726035
730 N PULASKI RD,"(41.8941496, -87.72646209999999)",41.8941496, -87.72646209999999
3000 S LAWNDALE AVE,"(41.8382715, -87.71769139999999)",41.8382715, -87.71769139999999
525 N ARMOUR ST,"(41.8926537, -87.66555149999999)",41.8926537, -87.66555149999999
6550 S SEELEY AVE,"(41.7741847, -87.67533379999999)",41.7741847, -87.67533379999999
2330 E 99TH ST,"(41.7156226, -87.56716569999999)",41.7156226, -87.56716569999999
2446 N RIDGEWAY AVE,"(41.9258244, -87.7210058)",41.9258244, -87.7210058
9050 S BURLEY AVE,"(41.7304119, -87.5459182)",41.7304119, -87.5459182
2130 S CENTRAL PARK AVE,"(41.8525159, -87.7151457)",41.8525159, -87.7151457
4641 N ASHLAND AVE,"(41.9664797, -87.6688298)",41.9664797, -87.6688298
2235 S ALBANY AVE,"(41.8504839, -87.7025043)",41.8504839, -87.7025043
2228 S WHIPPLE ST,"(41.85084430000001, -87.7018839)",41.85084430000001, -87.7018839
13300 S LANGLEY AVE,"(41.65369740000001, -87.6049453)",41.65369740000001, -87.6049453
4810 S LEAMINGTON AVE,"(41.8051053, -87.7521354)",41.8051053, -87.7521354
4434 N LARAMIE AVE,"(41.9618289, -87.7576867)",41.9618289, -87.7576867
7151 W CORNELIA AVE,"(41.9432242, -87.8065994)",41.9432242, -87.8065994
221 E 49TH ST,"(41.80548570000001, -87.6203386)",41.80548570000001, -87.6203386
4935 S INDIANA AVE,"(41.8047037, -87.6210882)",41.8047037, -87.6210882
8247 S CHRISTIANA AVE,"(41.7429177, -87.7052807)",41.7429177, -87.7052807
2100 E 88TH ST,"(41.7352636, -87.5732451)",41.7352636, -87.5732451
12450 S STATE ST,"(41.6677891, -87.62230009999999)",41.6677891, -87.62230009999999
2021 N BURLING ST,"(41.9187998, -87.64668909999999)",41.9187998, -87.64668909999999
4856 S LAFLIN ST,"(41.8051666, -87.6624487)",41.8051666, -87.6624487
7101 N GREENVIEW AVE,"(42.0118136, -87.6677248)",42.0118136, -87.6677248
2221 S LAWNDALE AVE,"(41.8510657, -87.7169435)",41.8510657, -87.7169435
5051 N KENNETH AVE,"(41.97296, -87.7386609)",41.97296, -87.7386609
200 E 111TH ST,"(41.6926437, -87.6182275)",41.6926437, -87.6182275
7037 S RHODES AVE,"(41.766664, -87.61128910000001)",41.766664, -87.61128910000001
6430 S KENWOOD AVE,"(41.7775899, -87.593442)",41.7775899, -87.593442
8116 S HALSTED ST,"(41.7466134, -87.64391309999999)",41.7466134, -87.64391309999999
1420 N ARTESIAN AVE,"(41.9073095, -87.6885435)",41.9073095, -87.6885435
4302 W DIVISION ST,"(41.9025543, -87.7339523)",41.9025543, -87.7339523
8001 S WABASH AVE,"(41.749023, -87.62245899999999)",41.749023, -87.62245899999999
5300 S HALSTED ST,"(41.797627, -87.645662)",41.797627, -87.645662
3200 W CONGRESS PKWY,"(41.8749169, -87.7059695)",41.8749169, -87.7059695
3349 W RICE ST,"(41.8964214, -87.7107745)",41.8964214, -87.7107745
5653 S LOOMIS ST,"(41.7941021, -87.6597424)",41.7941021, -87.6597424
4109 S PRINCETON AVE,"(41.81924069999999, -87.633313)",41.81924069999999, -87.633313
5917 N BROADWAY,"(41.98926609999999, -87.6597274)",41.98926609999999, -87.6597274
4556 W 56TH ST,"(41.7912594, -87.73696989999999)",41.7912594, -87.73696989999999
3231 W DOUGLAS BLVD,"(41.8624923, -87.70689259999999)",41.8624923, -87.70689259999999
4701 W MARQUETTE RD,"(41.7711749, -87.73950409999999)",41.7711749, -87.73950409999999
2420 W ADAMS ST,"(41.8790539, -87.68723210000002)",41.8790539, -87.68723210000002
3925 E 104TH ST,"(41.7063698, -87.5292697)",41.7063698, -87.5292697
730 S SPRINGFIELD AVE,"(41.8711594, -87.72282229999999)",41.8711594, -87.72282229999999
8900 S GREEN BAY AVE,"(41.733697, -87.541972)",41.733697, -87.541972
630 N KINGSBURY AVE,"(41.8936415, -87.6419353)",41.8936415, -87.6419353
1800 N ASHLAND AVE,"(41.9146169, -87.6680129)",41.9146169, -87.6680129
1401 S INDIANA AVE,"(41.863955, -87.622017)",41.863955, -87.622017
1434 N MONTICELLO AVE,"(41.9074835, -87.7179382)",41.9074835, -87.7179382
3517 W ARTHINGTON ST,"(41.8694047, -87.71376409999999)",41.8694047, -87.71376409999999
2900 S ASHLAND AVE,"(41.8443995, -87.66634669999999)",41.8443995, -87.66634669999999
1750 W JUNEWAY TER,"(42.0225303, -87.6754558)",42.0225303, -87.6754558
1944 S ST. LOUIS AVE,"(41.853935, -87.71274299999999)",41.853935, -87.71274299999999
916 N HONORE ST,"(41.898361, -87.67378699999999)",41.898361, -87.67378699999999
1426 W WARNER AVE,"(41.957339, -87.665275)",41.957339, -87.665275
3200 W PETERSON AVE,"(41.9912637, -87.7099708)",41.9912637, -87.7099708
6200 S LASALLE ST,"(41.7816817, -87.6289278)",41.7816817, -87.6289278
6336 S KILBOURN AVE,"(41.7778584, -87.73523379999999)",41.7778584, -87.73523379999999
2155 W WABANSIA AVE,"(41.91261009999999, -87.6821397)",41.91261009999999, -87.6821397
3150 S WESTERN AVE,"(41.8368229, -87.68573909999999)",41.8368229, -87.68573909999999
2850 S HALSTED ST,"(41.84256269999999, -87.6463998)",41.84256269999999, -87.6463998
4101 S. LAKE PARK AVE,"(41.820137, -87.6001556)",41.820137, -87.6001556
5801 N PULASKI RD,"(41.9861619, -87.72679190000001)",41.9861619, -87.72679190000001
800 W WISCONSIN ST,"(41.916011, -87.6488839)",41.916011, -87.6488839
1401 N NOBLE ST,"(41.9070604, -87.6627099)",41.9070604, -87.6627099
6400 N KEDZIE,"(41.9978536, -87.70934629999999)",41.9978536, -87.70934629999999
115 S. SANGAMON ST,"(41.87979929999999, -87.6508049)",41.87979929999999, -87.6508049
450 E. BENTON PLACE,"(41.8858918, -87.6175994)",41.8858918, -87.6175994
1801 S CALUMET AVE,"(41.8577974, -87.6192481)",41.8577974, -87.6192481
105TH - 129TH ST,"(41.7056605, -87.5644683)",41.7056605, -87.5644683
2430 W LOGAN BLVD,"(41.9285849, -87.69069119999999)",41.9285849, -87.69069119999999
1805 N ALBANY AVE,"(41.913916, -87.704808)",41.913916, -87.704808
3919 N MONTICELLO AVE,"(41.9526158, -87.71901040000002)",41.9526158, -87.71901040000002
745 W WRIGHTWOOD AVE,"(41.9290862, -87.6482187)",41.9290862, -87.6482187
6800 S STEWART AVE,"(41.7708441, -87.63258569999999)",41.7708441, -87.63258569999999
245 W 51ST ST,"(41.8012712, -87.6326036)",41.8012712, -87.6326036
6938 S EAST END AVE,"(41.7688995, -87.5833047)",41.7688995, -87.5833047
3823 W SCHOOL ST,"(41.94095739999999, -87.7232484)",41.94095739999999, -87.7232484
4701 W BELMONT AVE,"(41.938599, -87.74456599999999)",41.938599, -87.74456599999999
1932 W LUNT AVE,"(42.009047, -87.67988079999999)",42.009047, -87.67988079999999
5825 S KOSTNER AVE,"(41.7871479, -87.7324652)",41.7871479, -87.7324652
5825 S KOSTNER AVE,"(41.7871479, -87.7324652)",41.7871479, -87.7324652
1444 W AUGUSTA BL,"(41.9000051, -87.6643363)",41.9000051, -87.6643363
3826 W 58TH ST,"(41.7882691, -87.7193163)",41.7882691, -87.7193163
1423 W BRYN MAWR AVE,"(41.9832437, -87.6669158)",41.9832437, -87.6669158
1616 S AVERS AVE,"(41.858343, -87.72183509999999)",41.858343, -87.72183509999999
1241 W 19TH ST,"(41.8556707, -87.6581867)",41.8556707, -87.6581867
100 W 66TH ST,"(41.7745562, -87.6281309)",41.7745562, -87.6281309
3113 S RHODES AVE,"(41.8378996, -87.61336430000001)",41.8378996, -87.61336430000001
1915 S FEDERAL ST,"(41.8563951, -87.6293257)",41.8563951, -87.6293257
3663 S WABASH AVE,"(41.8280915, -87.6243605)",41.8280915, -87.6243605
5801 N PULASKI RD,"(41.9861619, -87.72679190000001)",41.9861619, -87.72679190000001
5510 N CHRISTIANA AVE,"(41.9816988, -87.71283419999999)",41.9816988, -87.71283419999999
244 E PERSHING RD,"(41.8243586, -87.61980059999999)",41.8243586, -87.61980059999999
1040 N KEELER AVE,"(41.9003237, -87.7319285)",41.9003237, -87.7319285
2301 W 21ST PL,"(41.8525261, -87.6837986)",41.8525261, -87.6837986
9650 S AVE M,"(41.7198078, -87.537708)",41.7198078, -87.537708
4300 N WINCHESTER AVE,"(41.9598685, -87.6777968)",41.9598685, -87.6777968
1420 W 17TH ST,"(41.8590606, -87.66313579999999)",41.8590606, -87.66313579999999
9507 S OGLESBY AVE,"(41.7223272, -87.5657341)",41.7223272, -87.5657341
4200 W 31ST ST,"(41.83708499999999, -87.729384)",41.83708499999999, -87.729384
650 E 85TH ST,"(41.7406771, -87.6084994)",41.7406771, -87.6084994
11156 S HOYNE AVE,"(41.6901343, -87.6737308)",41.6901343, -87.6737308
2642 W 15TH PL,"(41.8604424, -87.69262549999999)",41.8604424, -87.69262549999999
5545 W HARRISON ST,"(41.8725092, -87.76359540000001)",41.8725092, -87.76359540000001
6813 W IMLAY ST,"(41.9987454, -87.7976668)",41.9987454, -87.7976668
400 W 76TH ST,"(41.7564966, -87.6350873)",41.7564966, -87.6350873
10538 S LANGLEY AVE,"(41.7025584, -87.6062913)",41.7025584, -87.6062913
620 N SAWYER AVE,"(41.89230209999999, -87.7080876)",41.89230209999999, -87.7080876
1852 S ALBANY AVE,"(41.8559749, -87.7032363)",41.8559749, -87.7032363
4046 S PRAIRIE AVE,"(41.82053760000001, -87.619897)",41.82053760000001, -87.619897
4100 N LONG AVE,"(41.955369, -87.76358929999999)",41.955369, -87.76358929999999
5330 W BERTEAU AVE,"(41.9573481, -87.76102259999999)",41.9573481, -87.76102259999999
5332 W ADDISON ST,"(41.9461521, -87.7607189)",41.9461521, -87.7607189
7340 N ROGERS AVE,"(42.0152079, -87.6780895)",42.0152079, -87.6780895
7530 S SOUTH SHORE DR,"(41.76051349999999, -87.5568043)",41.76051349999999, -87.5568043
6310 S DREXEL AVE,"(41.7800245, -87.6028779)",41.7800245, -87.6028779
1632 W WRIGHTWOOD AVE,"(41.92909239999999, -87.6691774)",41.92909239999999, -87.6691774
4351 S DREXEL BL,"(41.8154658, -87.6036355)",41.8154658, -87.6036355
2009 W SCHILLER ST,"(41.9068861, -87.6780938)",41.9068861, -87.6780938
1844 N SHEFFIELD AVE,"(41.9150409, -87.6535746)",41.9150409, -87.6535746
1060 E 47TH ST,"(41.8099431, -87.5996084)",41.8099431, -87.5996084
1135 N CLEAVER RD,"(41.902656, -87.66338760000001)",41.902656, -87.66338760000001
10970 S PROSPECT AVE,"(41.694579, -87.6692769)",41.694579, -87.6692769
2148 N LONG AVE,"(41.9194202, -87.7618468)",41.9194202, -87.7618468
119 S CENTRAL PARK BL,"(41.8789685, -87.7156679)",41.8789685, -87.7156679
4650 N MENARD AVE,"(41.9656465, -87.7727431)",41.9656465, -87.7727431
2739 W DIVISION ST,"(41.9026807, -87.6959923)",41.9026807, -87.6959923
1419 W BLACKHAWK ST,"(41.9068649, -87.66348149999999)",41.9068649, -87.66348149999999
2230 W MC LEAN AVE,"(41.918734, -87.68377149999999)",41.918734, -87.68377149999999
11311 S FORRESTVILLE AVE,"(41.6884931, -87.60942)",41.6884931, -87.60942
11113 S COTTAGE GROVE AVE,"(41.692623, -87.60988549999999)",41.692623, -87.60988549999999
6230 N LEMONT AVE,"(41.9947039, -87.74496540000001)",41.9947039, -87.74496540000001
4520 N WESTERN AVE,"(41.9639251, -87.6891321)",41.9639251, -87.6891321
7130 S HAMLIN AVE,"(41.7629337, -87.71804279999999)",41.7629337, -87.71804279999999
6239 N MCCLELLAN AVE,"(41.995351, -87.770511)",41.995351, -87.770511
7334 S MARYLAND AVE,"(41.7611516, -87.6044715)",41.7611516, -87.6044715
4350 W 79TH ST,"(41.7502378, -87.7294483)",41.7502378, -87.7294483
7316 S HOYNE AVE,"(41.760634, -87.67637959999999)",41.760634, -87.67637959999999
4332 N PAULINA ST,"(41.9608864, -87.67128009999999)",41.9608864, -87.67128009999999
4437 N SEELEY AVE,"(41.9625873, -87.68030999999999)",41.9625873, -87.68030999999999
4626 N MANOR AVE,"(41.96530569999999, -87.7001396)",41.96530569999999, -87.7001396
5631 S KIMBARK AVE,"(41.7921768, -87.5943863)",41.7921768, -87.5943863
834 E 50TH ST,"(41.8045435, -87.60508349999999)",41.8045435, -87.60508349999999
6350 S STEWART AVE,"(41.7786152, -87.63556349999999)",41.7786152, -87.63556349999999
3650 W SCHOOL ST,"(41.9412895, -87.71928129999999)",41.9412895, -87.71928129999999
3425 N MAJOR AVE,"(41.94260209999999, -87.7690709)",41.94260209999999, -87.7690709
1300 W 79TH ST,"(41.7506564, -87.6560816)",41.7506564, -87.6560816
7956 S DR MARTIN LUTHER KING,"(41.7496041, -87.6149334)",41.7496041, -87.6149334
2845 W BARRY AVE,"(41.9373329, -87.6995709)",41.9373329, -87.6995709
7500 W TALCOTT AVE,"(41.9910221, -87.8154417)",41.9910221, -87.8154417
9349 S WENTWORTH AVE,"(41.7237415, -87.6283595)",41.7237415, -87.6283595
1010 E 72ND ST,"(41.7645637, -87.60011539999999)",41.7645637, -87.60011539999999
2509 W IRVING PARK RD,"(41.9536443, -87.692032)",41.9536443, -87.692032
827 W 19TH ST,"(41.8567231, -87.6476978)",41.8567231, -87.6476978
5009 S LAFLIN ST,"(41.8027209, -87.6619295)",41.8027209, -87.6619295
9625 S LONGWOOD DR,"(41.7184862, -87.6687121)",41.7184862, -87.6687121
2501 W 103RD ST,"(41.70606, -87.6844778)",41.70606, -87.6844778
9516 S WOOD ST,"(41.7207994, -87.6675837)",41.7207994, -87.6675837
6100 W FULLERTON AVE,"(41.9237377, -87.78528759999999)",41.9237377, -87.78528759999999
5100 N FRANCISCO AVE,"(41.9739812, -87.7019591)",41.9739812, -87.7019591
401 E RIVER DR,"(41.8887632, -87.6179124)",41.8887632, -87.6179124
5230 W ARGYLE ST,"(41.971556, -87.7600498)",41.971556, -87.7600498
6835 S NORMAL BLVD,"(41.7702519, -87.6368723)",41.7702519, -87.6368723
9247 S EGGLESTON AVE,"(41.7263195, -87.6343557)",41.7263195, -87.6343557
10540 S MORGAN ST,"(41.702288, -87.6483837)",41.702288, -87.6483837
4225 S LAKE PARK AVE,"(41.817471, -87.598843)",41.817471, -87.598843
7345 N WASHTENAW AVE,"(42.0152834, -87.6964435)",42.0152834, -87.6964435
7345 N WASHTENAW AVE,"(42.0152834, -87.6964435)",42.0152834, -87.6964435
1800 W BALMORAL AVE,"(41.9804465, -87.67506639999999)",41.9804465, -87.67506639999999
3000 W ARGYLE ST,"(41.9721325, -87.7035983)",41.9721325, -87.7035983
62 W ROOSEVELT RD,"(41.8683711, -87.6299243)",41.8683711, -87.6299243
3436 W WILSON AVE,"(41.9650389, -87.7144907)",41.9650389, -87.7144907
6312 W ROSEDALE AVE,"(41.9885028, -87.7858067)",41.9885028, -87.7858067
314 W 108TH ST,"(41.69725589999999, -87.6311154)",41.69725589999999, -87.6311154
2000 E 75TH ST,"(41.759108, -87.57575)",41.759108, -87.57575
6059 S WABASH AVE,"(41.7844236, -87.6236972)",41.7844236, -87.6236972
11546 S AVE L,"(41.684903, -87.5373153)",41.684903, -87.5373153
110 N PAULINA ST,"(41.8835997, -87.66935699999999)",41.8835997, -87.66935699999999
7831 S PRAIRIE AVE,"(41.7519718, -87.6177101)",41.7519718, -87.6177101
2410 S LEAVITT ST,"(41.8479002, -87.6812235)",41.8479002, -87.6812235
2150 W HARRISON ST,"(41.8746088, -87.68006700000001)",41.8746088, -87.68006700000001
3045 E 83RD ST,"(41.7443673, -87.54979709999999)",41.7443673, -87.54979709999999
6871 W BELDEN AVE,"(41.9208169, -87.7971244)",41.9208169, -87.7971244
8716 S WALLACE ST,"(41.7352668, -87.63950109999999)",41.7352668, -87.63950109999999
646 N LAWNDALE AVE,"(41.8930604, -87.7191745)",41.8930604, -87.7191745
2216 W HIRSCH ST,"(41.9072003, -87.6828914)",41.9072003, -87.6828914
3520 N SACRAMENTO AVE,"(41.9456522, -87.7028816)",41.9456522, -87.7028816
2906 EAST 96TH STREET,"(41.721227, -87.55264299999999)",41.721227, -87.55264299999999
6250 N SHERIDAN RD,"(41.9959854, -87.6560149)",41.9959854, -87.6560149
2453 W MONROE ST,"(41.880439, -87.6880353)",41.880439, -87.6880353
347 N ST LOUIS AVE,"(41.8875685, -87.71362649999999)",41.8875685, -87.71362649999999
160 W WENDELL ST,"(41.9015633, -87.63382)",41.9015633, -87.63382
11816 S INDIANA AVE,"(41.6793831, -87.6182908)",41.6793831, -87.6182908
2018 N RICHMOND ST,"(41.9182127, -87.70034729999999)",41.9182127, -87.70034729999999
819 N LEAMINGTON AVE,"(41.8956638, -87.7540607)",41.8956638, -87.7540607
1949 W 48TH ST,"(41.8064504, -87.6741203)",41.8064504, -87.6741203
5534 S ST LOUIS AVE,"(41.7927818, -87.71230229999999)",41.7927818, -87.71230229999999
3017 S WELLS ST,"(41.8390704, -87.6325595)",41.8390704, -87.6325595
1337 W OHIO ST,"(41.8922533, -87.66123650000002)",41.8922533, -87.66123650000002
5861 N KOSTNER AVE,"(41.9884007, -87.7373989)",41.9884007, -87.7373989
6040 N KILPATRICK AVE,"(41.9912819, -87.7464294)",41.9912819, -87.7464294
5750 N ROGERS AVE,"(41.985669, -87.7404055)",41.985669, -87.7404055
5248 S SAWYER AVE,"(41.7975924, -87.70526129999999)",41.7975924, -87.70526129999999
1850 N NEWLAND AVE,"(41.91381459999999, -87.7994758)",41.91381459999999, -87.7994758
4201 W HENDERSON ST,"(41.9413315, -87.73284029999999)",41.9413315, -87.73284029999999
2415 N MARSHFIELD AVE,"(41.9258583, -87.6689954)",41.9258583, -87.6689954
640 W SCOTT ST,"(41.9053683, -87.64482269999999)",41.9053683, -87.64482269999999
9755 S GREENWOOD AVE,"(41.7168493, -87.59685139999999)",41.7168493, -87.59685139999999
2957 N HOYNE AVE,"(41.9355398, -87.6802953)",41.9355398, -87.6802953
7627 S CONSTANCE AVE,"(41.7561533, -87.5794785)",41.7561533, -87.5794785
1552 W SCHREIBER AVE,"(41.9989998, -87.6695769)",41.9989998, -87.6695769
2727 N LONG AVE,"(41.9303572, -87.76127439999999)",41.9303572, -87.76127439999999
3601 N MILWAUKEE AVE,"(41.9472359, -87.73583479999999)",41.9472359, -87.73583479999999
4620 W 83RD PL,"(41.741494, -87.73660199999999)",41.741494, -87.73660199999999
228 E CHICAGO AVE,"(41.8967738, -87.62173159999999)",41.8967738, -87.62173159999999
2238 N OAKLEY AVE,"(41.9210021, -87.68465379999999)",41.9210021, -87.68465379999999
5656 S ST LOUIS AVE,"(41.7903126, -87.71081559999999)",41.7903126, -87.71081559999999
5887 N RIDGE AVE,"(41.9888418, -87.6685693)",41.9888418, -87.6685693
5900 N GLENWOOD AVE,"(41.9890085, -87.6667674)",41.9890085, -87.6667674
4600 S HERMITAGE AVE,"(41.80990310000001, -87.66899790000001)",41.80990310000001, -87.66899790000001
375 W ELM ST,"(41.9028389, -87.63741859999999)",41.9028389, -87.63741859999999
6020 S LANGLEY AVE,"(41.7852617, -87.6085245)",41.7852617, -87.6085245
7823 S ELLIS AVE,"(41.7526531, -87.6003724)",41.7526531, -87.6003724
6935 W ADDISON,"(41.945366, -87.800257)",41.945366, -87.800257
3660 W 23RD ST,"(41.8500587, -87.71700150000001)",41.8500587, -87.71700150000001
3505 N SOUTHPORT AVE,"(41.9456861, -87.663664)",41.9456861, -87.663664
910 S ABERDEEN ST,"(41.871524, -87.6547071)",41.871524, -87.6547071
533 W 27TH ST,"(41.8440992, -87.64110409999999)",41.8440992, -87.64110409999999
1000 W 52ND ST,"(41.8000322, -87.65052279999999)",41.8000322, -87.65052279999999
1307 W 52ND ST,"(41.7995763, -87.6586367)",41.7995763, -87.6586367
5705 S SHIELDS AVE,"(41.7908713, -87.6340669)",41.7908713, -87.6340669
245 W 57TH ST,"(41.7904898, -87.6322584)",41.7904898, -87.6322584
4250 S ROCKWELL ST,"(41.8159169, -87.6895299)",41.8159169, -87.6895299
1330 E 50TH ST,"(41.8047591, -87.5943398)",41.8047591, -87.5943398
1460 W 112TH ST,"(41.6906458, -87.65930759999999)",41.6906458, -87.65930759999999
8235 S VINCENNES AVE,"(41.7441457, -87.63594119999999)",41.7441457, -87.63594119999999
1640 N DRAKE AVE,"(41.9111279, -87.71542939999999)",41.9111279, -87.71542939999999
1321 S PAULINA ST,"(41.8646142, -87.6683561)",41.8646142, -87.6683561
2835 S WALLACE ST,"(41.84259160000001, -87.6415083)",41.84259160000001, -87.6415083
1443 N. OGDEN AVE,"(41.9072285, -87.6454436)",41.9072285, -87.6454436
1331 W MONROE ST,"(41.88004189999999, -87.6614285)",41.88004189999999, -87.6614285
1260 W ADAMS ST,"(41.8795957, -87.6589984)",41.8795957, -87.6589984
9912 S PRINCETON AVE,"(41.7138966, -87.63121910000001)",41.7138966, -87.63121910000001
36 E 36TH PL,"(41.8287306, -87.62517869999999)",41.8287306, -87.62517869999999
2526 W GRAND AVE,"(41.891024, -87.690467)",41.891024, -87.690467
744 E 103RD ST,"(41.7074651, -87.60538849999999)",41.7074651, -87.60538849999999
4310 N MELVINA AVE,"(41.9590292, -87.7821491)",41.9590292, -87.7821491
1059 W 13TH ST,"(41.8649951, -87.6540125)",41.8649951, -87.6540125
534 N ALBANY AVE,"(41.8914303, -87.70395889999999)",41.8914303, -87.70395889999999
1855 W HURON ST,"(41.89413709999999, -87.67423889999999)",41.89413709999999, -87.67423889999999
6206 N HAMLIN AVE,"(41.9942847, -87.7245535)",41.9942847, -87.7245535
5400 S ST LOUIS AVE,"(41.7953643, -87.71157099999999)",41.7953643, -87.71157099999999
11725 S PERRY AVE,"(41.6812419, -87.6249076)",41.6812419, -87.6249076
1365 E 60TH STREET,"(41.7857114, -87.5919145)",41.7857114, -87.5919145
1021 E. 83RD ST,"(41.7437801, -87.599489)",41.7437801, -87.599489
7550 S PHILLIPS AVE,"(41.7574114, -87.5654904)",41.7574114, -87.5654904
8255 S HOUSTON AVE,"(41.7449819, -87.54971839999999)",41.7449819, -87.54971839999999
1300 W WOLFRAM ST,"(41.93344159999999, -87.66143129999999)",41.93344159999999, -87.66143129999999
1212 S PLYMOUTH CT,"(41.8667185, -87.6289961)",41.8667185, -87.6289961
7529 S CONSTANCE AVE,"(41.757653, -87.578952)",41.757653, -87.578952
7342 S HOYNE AVE,"(41.75969070000001, -87.6763149)",41.75969070000001, -87.6763149
214 N LAVERGNE AVE,"(41.8850409, -87.7507791)",41.8850409, -87.7507791
4706 N PULASKI RD,"(41.966814, -87.72834499999999)",41.966814, -87.72834499999999
1437 E 54TH ST,"(41.797828, -87.590222)",41.797828, -87.590222
2400 S MARSHALL BL,"(41.8476349, -87.699837)",41.8476349, -87.699837
3151 W DOUGLAS BL,"(41.8621559, -87.7051943)",41.8621559, -87.7051943
2643 SOUTH CENTRAL PARK,"(41.8431425, -87.7144405)",41.8431425, -87.7144405
9037 S HARPER AVE,"(41.7301071, -87.5862856)",41.7301071, -87.5862856
1439 W WELLINGTON AVE,"(41.9358077, -87.6655231)",41.9358077, -87.6655231
1710 W ADDISON ST,"(41.9472259, -87.6719523)",41.9472259, -87.6719523
3659 S HONORE ST,"(41.8270017, -87.6711478)",41.8270017, -87.6711478
1332 N MASSASOIT AVE,"(41.9043552, -87.7700194)",41.9043552, -87.7700194
2211 W 18TH PL,"(41.8565017, -87.6813322)",41.8565017, -87.6813322
2867 S THROOP ST,"(41.842372, -87.652203)",41.842372, -87.652203
10121 S LONGWOOD DR,"(41.7097292, -87.66918179999999)",41.7097292, -87.66918179999999
4941 W PATTERSON AVE,"(41.94671779999999, -87.7513148)",41.94671779999999, -87.7513148
4440 WEST 83RD STREET,"(41.7419872, -87.7328127)",41.7419872, -87.7328127
3920 N LEAVITT ST,"(41.9528843, -87.68383089999999)",41.9528843, -87.68383089999999
6547 S STEWART AVE,"(41.7748074, -87.634107)",41.7748074, -87.634107
6020 S LAFLIN ST,"(41.7840748, -87.6624814)",41.7840748, -87.6624814
4839 S HARDING AVE,"(41.8047025, -87.7219203)",41.8047025, -87.7219203
3333 W 110TH ST,"(41.6930965, -87.7048042)",41.6930965, -87.7048042
2524 N ORCHARD ST,"(41.9284062, -87.646766)",41.9284062, -87.646766
7120 S CALUMET AVE,"(41.7646866, -87.61733009999999)",41.7646866, -87.61733009999999
5841 W STRONG ST,"(41.9699982, -87.77463689999999)",41.9699982, -87.77463689999999
5252 N LONG AVE,"(41.9759915, -87.7637452)",41.9759915, -87.7637452
5337 S NATOMA AVE,"(41.7948795, -87.7875521)",41.7948795, -87.7875521
7740 S EBERHART AVE,"(41.7535034, -87.61293099999999)",41.7535034, -87.61293099999999
4343 W SUNNYSIDE AVE,"(41.9624514, -87.73744409999999)",41.9624514, -87.73744409999999
4052 S WABASH AVE,"(41.8203675, -87.6250776)",41.8203675, -87.6250776
8734 S PAULINA ST,"(41.7346313, -87.6658114)",41.7346313, -87.6658114
7930 W FOSTER AVE,"(41.9740532, -87.82567329999999)",41.9740532, -87.82567329999999
1501 E 83RD PL,"(41.7429291, -87.5876615)",41.7429291, -87.5876615
3131 NORTH MASON AVE,"(41.9376152, -87.7745973)",41.9376152, -87.7745973
13110 S BALTIMORE AVE,"(41.6568912, -87.54759469999999)",41.6568912, -87.54759469999999
3535 N PANAMA AVE,"(41.94444499999999, -87.8285293)",41.94444499999999, -87.8285293
10155 S EWING AVE,"(41.7106001, -87.53468099999999)",41.7106001, -87.53468099999999
4500 S WALLACE ST,"(41.812397, -87.641072)",41.812397, -87.641072
5515 SOUTH SAWYER AVE,"(41.7927979, -87.7041578)",41.7927979, -87.7041578
4854 W MONTANA ST,"(41.92543209999999, -87.7485133)",41.92543209999999, -87.7485133
6216 N GLENWOOD AVE,"(41.9951404, -87.665652)",41.9951404, -87.665652
1677 W BRYN MAWR AVE,"(41.9832388, -87.6718391)",41.9832388, -87.6718391
2347 W AUGUSTA BL,"(41.8991248, -87.68603619999999)",41.8991248, -87.68603619999999
10115 S PARNELL AVE,"(41.7101844, -87.63647639999999)",41.7101844, -87.63647639999999
5614 N FAIRFIELD AVE,"(41.9837884, -87.69832249999999)",41.9837884, -87.69832249999999
3640 W WOLFRAM ST,"(41.9329979, -87.7189538)",41.9329979, -87.7189538
1076 W ROOSEVELT RD,"(41.8676547, -87.6540661)",41.8676547, -87.6540661
5525 N MAGNOLIA AVE,"(41.9824749, -87.66094059999999)",41.9824749, -87.66094059999999
2101 N FREMONT ST,"(41.9197513, -87.6513566)",41.9197513, -87.6513566
5201 S MC VICKER AVE,"(41.7975676, -87.77312189999999)",41.7975676, -87.77312189999999
2801 S PRINCETON AVE,"(41.8423859, -87.63385699999999)",41.8423859, -87.63385699999999
2509 W LOGAN BL,"(41.9281517, -87.6904723)",41.9281517, -87.6904723
10212 S VERNON AVE,"(41.70882750000001, -87.613022)",41.70882750000001, -87.613022
4939 W MONTROSE AVE,"(41.960296, -87.7516672)",41.960296, -87.7516672
10200 S WASHTENAW AVE,"(41.70797, -87.68943)",41.70797, -87.68943
2245 N SOUTHPORT AVE,"(41.9232646, -87.66292589999999)",41.9232646, -87.66292589999999
7400 W TOUHY AVE,"(42.0119385, -87.81209330000002)",42.0119385, -87.81209330000002
3330 N LOCKWOOD AVE,"(41.9416729, -87.7597895)",41.9416729, -87.7597895
1500 W BELMONT AVE,"(41.94007329999999, -87.66680029999999)",41.94007329999999, -87.66680029999999
2252 W WASHINGTON BL,"(41.8832967, -87.6837264)",41.8832967, -87.6837264
7318 N OAKLEY AVE,"(42.0144251, -87.6878885)",42.0144251, -87.6878885
9833 SOUTH THROOP STREET,"(41.7146074, -87.654411)",41.7146074, -87.654411
1810 N HERMITAGE AVE,"(41.9145828, -87.67212699999999)",41.9145828, -87.67212699999999
1026 W BUENA AVE,"(41.958763, -87.6555169)",41.958763, -87.6555169
7033 N MOSELLE AVE,"(42.008011, -87.77775799999999)",42.008011, -87.77775799999999
6424 S KENNETH AVE,"(41.7761705, -87.733961)",41.7761705, -87.733961
4910 N CLAREMONT AVE,"(41.9708359, -87.6881344)",41.9708359, -87.6881344
8231 S SOUTH SHORE DR,"(41.7459161, -87.5476084)",41.7459161, -87.5476084
5115 N MONTCLARE AVE,"(41.9744566, -87.80427689999999)",41.9744566, -87.80427689999999
3741 W 62ND ST,"(41.7805776, -87.716655)",41.7805776, -87.716655
2200 W RICE ST,"(41.8970747, -87.6823536)",41.8970747, -87.6823536
6143 W IRVING PARK RD,"(41.9525442, -87.780793)",41.9525442, -87.780793
5900 W BELMONT AVE,"(41.93900970000001, -87.7749916)",41.93900970000001, -87.7749916
5650 N CANFIELD AVE,"(41.9826709, -87.8242862)",41.9826709, -87.8242862
846 N MENARD AVE,"(41.8963933, -87.7706642)",41.8963933, -87.7706642
7621 S DORCHESTER AVE,"(41.7562701, -87.5902568)",41.7562701, -87.5902568
2114 WEST 22ND PLACE,"(41.8514554, -87.67903439999999)",41.8514554, -87.67903439999999
2500 W BRYN MAWR AVE,"(41.9834186, -87.69236900000001)",41.9834186, -87.69236900000001
2110 E 72ND ST,"(41.7648992, -87.57320650000001)",41.7648992, -87.57320650000001
4131 W CORTLAND ST,"(41.9148518, -87.7295721)",41.9148518, -87.7295721
1919 S ASHLAND AVE,"(41.8553013, -87.6657888)",41.8553013, -87.6657888
1625 S ALLPORT ST,"(41.8590802, -87.6573367)",41.8590802, -87.6573367
6340 S NEW ENGLAND AVE,"(41.776312, -87.7940172)",41.776312, -87.7940172
5025 S KENNETH AVE,"(41.8019617, -87.7343004)",41.8019617, -87.7343004
7740 S WESTERN AVE,"(41.752586, -87.68297799999999)",41.752586, -87.68297799999999
6036 W EASTWOOD AVE,"(41.9647587, -87.7778575)",41.9647587, -87.7778575
7801 S THROOP ST,"(41.7519921, -87.654095)",41.7519921, -87.654095
5701 N REDWOOD DR?,"(41.982932, -87.827371)",41.982932, -87.827371
7416 N RIDGE BL,"(42.0164485, -87.6850048)",42.0164485, -87.6850048
1255 N NOBLE,"(41.9051817, -87.6621009)",41.9051817, -87.6621009
3027 W PALMER BL,"(41.9203164, -87.70321539999999)",41.9203164, -87.70321539999999
6125 S AUSTIN AVE,"(41.7803189, -87.7708024)",41.7803189, -87.7708024
6323 N NEWCASTLE AVE,"(41.9956974, -87.7962941)",41.9956974, -87.7962941
247 W 23RD ST,"(41.8497783, -87.6337832)",41.8497783, -87.6337832
8130 S CALIFORNIA AVE,"(41.7452155, -87.69313819999999)",41.7452155, -87.69313819999999
4827 N KENMORE AVE,"(41.969738, -87.6558012)",41.969738, -87.6558012
5467 S WOODLAWN AVE,"(41.7960341, -87.5964422)",41.7960341, -87.5964422
6040 W ARDMORE AVE,"(41.9869493, -87.77980269999999)",41.9869493, -87.77980269999999
4120 W 57TH ST,"(41.7899764, -87.7263485)",41.7899764, -87.7263485
4140 W ADDISON ST,"(41.9467705, -87.7310059)",41.9467705, -87.7310059
11741 S WESTERN AVE,"(41.6798298, -87.67999990000001)",41.6798298, -87.67999990000001
2559 N SAYRE AVE,"(41.9269111, -87.80029200000001)",41.9269111, -87.80029200000001
7424 S MORGAN ST,"(41.7590551, -87.64952720000001)",41.7590551, -87.64952720000001
640 W SCOTT ST,"(41.9053683, -87.64482269999999)",41.9053683, -87.64482269999999
2306 W MAYPOLE AVE,"(41.8841724, -87.6849027)",41.8841724, -87.6849027
7000 W 51ST PL,"(41.798765, -87.79663529999999)",41.798765, -87.79663529999999
